[
    {
        "id": "0",
        "station": "Aiguo Road",
        "line1": "12",
        "line2": "",
        "line3": "",
        "line4": "",
        "lat": "31.279688",
        "lng": "121.552681"
    },
    {
        "id": "1",
        "station": "Anshan Xincun",
        "line1": "8",
        "line2": "",
        "line3": "",
        "line4": "",
        "lat": "31.273225",
        "lng": "121.509581"
    },
    {
        "id": "2",
        "station": "Anting",
        "line1": "11",
        "line2": "",
        "line3": "",
        "line4": "",
        "lat": "31.288497",
        "lng": "121.162081"
    },
    {
        "id": "3",
        "station": "Baiyin Road",
        "line1": "11",
        "line2": "",
        "line3": "",
        "line4": "",
        "lat": "31.345262",
        "lng": "121.245378"
    },
    {
        "id": "4",
        "station": "Bao'an Highway",
        "line1": "1",
        "line2": "",
        "line3": "",
        "line4": "",
        "lat": "31.369566",
        "lng": "121.430981"
    },
    {
        "id": "5",
        "station": "Baoshan Road",
        "line1": "3",
        "line2": "4",
        "line3": "",
        "line4": "",
        "lat": "31.251571",
        "lng": "121.476368"
    },
    {
        "id": "6",
        "station": "Baoyang Road",
        "line1": "3",
        "line2": "",
        "line3": "",
        "line4": "",
        "lat": "31.395314",
        "lng": "121.479588"
    },
    {
        "id": "7",
        "station": "Beiqiao",
        "line1": "5",
        "line2": "",
        "line3": "",
        "line4": "",
        "lat": "31.045024",
        "lng": "121.410108"
    },
    {
        "id": "8",
        "station": "Beixinjing",
        "line1": "2",
        "line2": "",
        "line3": "",
        "line4": "",
        "lat": "31.216787",
        "lng": "121.373543"
    },
    {
        "id": "9",
        "station": "Beiyangjing Road",
        "line1": "6",
        "line2": "",
        "line3": "",
        "line4": "",
        "lat": "31.239121",
        "lng": "121.55226"
    },
    {
        "id": "10",
        "station": "Boxing Road",
        "line1": "6",
        "line2": "",
        "line3": "",
        "line4": "",
        "lat": "31.263501",
        "lng": "121.586689"
    },
    {
        "id": "11",
        "station": "Caobao Road",
        "line1": "1",
        "line2": "",
        "line3": "",
        "line4": "",
        "lat": "31.168237",
        "lng": "121.434977"
    },
    {
        "id": "12",
        "station": "Caohejing Hi",
        "line1": "9",
        "line2": "",
        "line3": "",
        "line4": "",
        "lat": "31.17064",
        "lng": "121.39781"
    },
    {
        "id": "13",
        "station": "Caoxi Road",
        "line1": "3",
        "line2": "",
        "line3": "",
        "line4": "",
        "lat": "31.176736",
        "lng": "121.438365"
    },
    {
        "id": "14",
        "station": "Caoyang Road",
        "line1": "3",
        "line2": "4",
        "line3": "11",
        "line4": "",
        "lat": "31.239272",
        "lng": "121.417679"
    },
    {
        "id": "15",
        "station": "Century Avenue",
        "line1": "2",
        "line2": "4",
        "line3": "6",
        "line4": "9",
        "lat": "31.228998",
        "lng": "121.526814"
    },
    {
        "id": "16",
        "station": "Century Park",
        "line1": "2",
        "line2": "",
        "line3": "",
        "line4": "",
        "lat": "31.209971",
        "lng": "121.550768"
    },
    {
        "id": "17",
        "station": "Changping Road",
        "line1": "7",
        "line2": "",
        "line3": "",
        "line4": "",
        "lat": "31.23435",
        "lng": "121.442202"
    },
    {
        "id": "18",
        "station": "Changqing Road",
        "line1": "7",
        "line2": "",
        "line3": "",
        "line4": "",
        "lat": "31.17466",
        "lng": "121.48623"
    },
    {
        "id": "19",
        "station": "Changshou Road",
        "line1": "7",
        "line2": "13",
        "line3": "",
        "line4": "",
        "lat": "31.240076",
        "lng": "121.437859"
    },
    {
        "id": "20",
        "station": "Changshu Road",
        "line1": "1",
        "line2": "7",
        "line3": "",
        "line4": "",
        "lat": "31.213342",
        "lng": "121.451079"
    },
    {
        "id": "21",
        "station": "Changzhong Road",
        "line1": "7",
        "line2": "",
        "line3": "",
        "line4": "",
        "lat": "31.30397",
        "lng": "121.413748"
    },
    {
        "id": "22",
        "station": "Chengshan Road",
        "line1": "8",
        "line2": "",
        "line3": "",
        "line4": "",
        "lat": "31.170688",
        "lng": "121.496236"
    },
    {
        "id": "23",
        "station": "Chifeng Road",
        "line1": "3",
        "line2": "",
        "line3": "",
        "line4": "",
        "lat": "31.281325",
        "lng": "121.482496"
    },
    {
        "id": "24",
        "station": "China Art Museum",
        "line1": "8",
        "line2": "",
        "line3": "",
        "line4": "",
        "lat": "31.185411",
        "lng": "121.493625"
    },
    {
        "id": "25",
        "station": "Chuansha",
        "line1": "2",
        "line2": "",
        "line3": "",
        "line4": "",
        "lat": "31.19374",
        "lng": "121.697573"
    },
    {
        "id": "26",
        "station": "Chunshen Road",
        "line1": "5",
        "line2": "",
        "line3": "",
        "line4": "",
        "lat": "31.098127",
        "lng": "121.385642"
    },
    {
        "id": "27",
        "station": "Dabaishu",
        "line1": "3",
        "line2": "",
        "line3": "",
        "line4": "",
        "lat": "31.289552",
        "lng": "121.483281"
    },
    {
        "id": "28",
        "station": "Dachang Town",
        "line1": "7",
        "line2": "",
        "line3": "",
        "line4": "",
        "lat": "31.293316",
        "lng": "121.416538"
    },
    {
        "id": "29",
        "station": "Daduhe Road",
        "line1": "13",
        "line2": "",
        "line3": "",
        "line4": "",
        "lat": "37.4524876",
        "lng": "118.6905905"
    },
    {
        "id": "30",
        "station": "Dahuasan Road",
        "line1": "7",
        "line2": "",
        "line3": "",
        "line4": "",
        "lat": "31.273808",
        "lng": "121.423054"
    },
    {
        "id": "31",
        "station": "Dalian Road",
        "line1": "4",
        "line2": "12",
        "line3": "",
        "line4": "",
        "lat": "31.257938",
        "lng": "121.513088"
    },
    {
        "id": "32",
        "station": "Damuqiao Road",
        "line1": "4",
        "line2": "",
        "line3": "",
        "line4": "",
        "lat": "31.194154",
        "lng": "121.463668"
    },
    {
        "id": "33",
        "station": "Dapuqiao",
        "line1": "9",
        "line2": "",
        "line3": "",
        "line4": "",
        "lat": "31.206075",
        "lng": "121.468268"
    },
    {
        "id": "34",
        "station": "Dashijie",
        "line1": "8",
        "line2": "",
        "line3": "",
        "line4": "",
        "lat": "31.227241",
        "lng": "121.479284"
    },
    {
        "id": "35",
        "station": "Deping Road",
        "line1": "6",
        "line2": "",
        "line3": "",
        "line4": "",
        "lat": "31.245353",
        "lng": "121.564161"
    },
    {
        "id": "36",
        "station": "Dishui Lake",
        "line1": "16",
        "line2": "",
        "line3": "",
        "line4": "",
        "lat": "30.898221",
        "lng": "121.939886"
    },
    {
        "id": "37",
        "station": "Dong'an Road",
        "line1": "4",
        "line2": "7",
        "line3": "",
        "line4": "",
        "lat": "31.190815",
        "lng": "121.45487"
    },
    {
        "id": "38",
        "station": "Dongbaoxing Road",
        "line1": "3",
        "line2": "",
        "line3": "",
        "line4": "",
        "lat": "31.260118",
        "lng": "121.480352"
    },
    {
        "id": "39",
        "station": "Dongchang Road",
        "line1": "2",
        "line2": "",
        "line3": "",
        "line4": "",
        "lat": "31.233333",
        "lng": "121.515421"
    },
    {
        "id": "40",
        "station": "Dongchuan Road",
        "line1": "5",
        "line2": "",
        "line3": "",
        "line4": "",
        "lat": "31.018193",
        "lng": "121.419782"
    },
    {
        "id": "41",
        "station": "Dongjing",
        "line1": "9",
        "line2": "",
        "line3": "",
        "line4": "",
        "lat": "31.08448",
        "lng": "121.230469"
    },
    {
        "id": "42",
        "station": "Dongjing Road",
        "line1": "6",
        "line2": "",
        "line3": "",
        "line4": "",
        "lat": "31.290674",
        "lng": "121.588848"
    },
    {
        "id": "43",
        "station": "Donglu Road",
        "line1": "12",
        "line2": "",
        "line3": "",
        "line4": "",
        "lat": "31.282533",
        "lng": "121.579015"
    },
    {
        "id": "44",
        "station": "Dongming Road",
        "line1": "6",
        "line2": "",
        "line3": "",
        "line4": "",
        "lat": "31.172743",
        "lng": "121.510845"
    },
    {
        "id": "45",
        "station": "East Changji Road",
        "line1": "11",
        "line2": "",
        "line3": "",
        "line4": "",
        "lat": "31.293554",
        "lng": "121.200384"
    },
    {
        "id": "46",
        "station": "East Hangtou",
        "line1": "16",
        "line2": "",
        "line3": "",
        "line4": "",
        "lat": "31.05434",
        "lng": "121.617093"
    },
    {
        "id": "47",
        "station": "East Huaxia Road",
        "line1": "2",
        "line2": "",
        "line3": "",
        "line4": "",
        "lat": "31.196675",
        "lng": "121.681065"
    },
    {
        "id": "48",
        "station": "East Huinan",
        "line1": "16",
        "line2": "",
        "line3": "",
        "line4": "",
        "lat": "31.026787",
        "lng": "121.793987"
    },
    {
        "id": "49",
        "station": "East Nanjing Road",
        "line1": "2",
        "line2": "10",
        "line3": "",
        "line4": "",
        "lat": "31.237632",
        "lng": "121.484859"
    },
    {
        "id": "50",
        "station": "East Sanlin",
        "line1": "11",
        "line2": "",
        "line3": "",
        "line4": "",
        "lat": "31.146497",
        "lng": "121.523136"
    },
    {
        "id": "51",
        "station": "East Xujing",
        "line1": "2",
        "line2": "",
        "line3": "",
        "line4": "",
        "lat": "31.188253",
        "lng": "121.299286"
    },
    {
        "id": "52",
        "station": "East Yingao Road",
        "line1": "10",
        "line2": "",
        "line3": "",
        "line4": "",
        "lat": "31.321777",
        "lng": "121.506815"
    },
    {
        "id": "53",
        "station": "East Zhoupu",
        "line1": "16",
        "line2": "",
        "line3": "",
        "line4": "",
        "lat": "31.109083",
        "lng": "121.606503"
    },
    {
        "id": "54",
        "station": "Fanghua Road",
        "line1": "7",
        "line2": "",
        "line3": "",
        "line4": "",
        "lat": "31.19316",
        "lng": "121.550099"
    },
    {
        "id": "55",
        "station": "Fengqiao Road",
        "line1": "11",
        "line2": "",
        "line3": "",
        "line4": "",
        "lat": "31.241817",
        "lng": "121.411453"
    },
    {
        "id": "56",
        "station": "Fengzhuang",
        "line1": "13",
        "line2": "",
        "line3": "",
        "line4": "",
        "lat": "31.242542",
        "lng": "121.355252"
    },
    {
        "id": "57",
        "station": "Fujin Road",
        "line1": "1",
        "line2": "",
        "line3": "",
        "line4": "",
        "lat": "31.39225",
        "lng": "121.42466"
    },
    {
        "id": "58",
        "station": "Fuxing Island",
        "line1": "12",
        "line2": "",
        "line3": "",
        "line4": "",
        "lat": "31.2863889",
        "lng": "121.5630556"
    },
    {
        "id": "59",
        "station": "Gangcheng Road",
        "line1": "6",
        "line2": "",
        "line3": "",
        "line4": "",
        "lat": "31.352999",
        "lng": "121.574654"
    },
    {
        "id": "60",
        "station": "Gaoqing Road",
        "line1": "6",
        "line2": "",
        "line3": "",
        "line4": "",
        "lat": "31.160144",
        "lng": "121.515664"
    },
    {
        "id": "61",
        "station": "Gongfu Xincun",
        "line1": "1",
        "line2": "",
        "line3": "",
        "line4": "",
        "lat": "31.355414",
        "lng": "121.43409"
    },
    {
        "id": "62",
        "station": "Gongkang Road",
        "line1": "1",
        "line2": "",
        "line3": "",
        "line4": "",
        "lat": "31.318791",
        "lng": "121.447169"
    },
    {
        "id": "63",
        "station": "Guanglan Road",
        "line1": "2",
        "line2": "",
        "line3": "",
        "line4": "",
        "lat": "31.211045",
        "lng": "121.621096"
    },
    {
        "id": "64",
        "station": "Guangming Road",
        "line1": "11",
        "line2": "",
        "line3": "",
        "line4": "",
        "lat": "31.296325",
        "lng": "121.117296"
    },
    {
        "id": "65",
        "station": "Gucun Park",
        "line1": "7",
        "line2": "",
        "line3": "",
        "line4": "",
        "lat": "31.344591",
        "lng": "121.372939"
    },
    {
        "id": "66",
        "station": "Guilin Road",
        "line1": "9",
        "line2": "",
        "line3": "",
        "line4": "",
        "lat": "31.174872",
        "lng": "121.41855"
    },
    {
        "id": "67",
        "station": "Guoquan Road",
        "line1": "10",
        "line2": "",
        "line3": "",
        "line4": "",
        "lat": "31.289664",
        "lng": "121.510228"
    },
    {
        "id": "68",
        "station": "Hailun Road",
        "line1": "4",
        "line2": "10",
        "line3": "",
        "line4": "",
        "lat": "31.259276",
        "lng": "121.488675"
    },
    {
        "id": "69",
        "station": "Haitiansan Road",
        "line1": "2",
        "line2": "",
        "line3": "",
        "line4": "",
        "lat": "31.168356",
        "lng": "121.797051"
    },
    {
        "id": "70",
        "station": "Hangjin Road",
        "line1": "6",
        "line2": "",
        "line3": "",
        "line4": "",
        "lat": "31.335441",
        "lng": "121.593981"
    },
    {
        "id": "71",
        "station": "Hangzhong Road",
        "line1": "10",
        "line2": "",
        "line3": "",
        "line4": "",
        "lat": "31.165586",
        "lng": "121.354918"
    },
    {
        "id": "72",
        "station": "Hanzhong Road",
        "line1": "1",
        "line2": "",
        "line3": "",
        "line4": "",
        "lat": "31.241746",
        "lng": "121.458592"
    },
    {
        "id": "73",
        "station": "Hechuan Road",
        "line1": "9",
        "line2": "",
        "line3": "",
        "line4": "",
        "lat": "31.166531",
        "lng": "121.384708"
    },
    {
        "id": "74",
        "station": "Hengshan Road",
        "line1": "1",
        "line2": "",
        "line3": "",
        "line4": "",
        "lat": "31.204715",
        "lng": "121.446551"
    },
    {
        "id": "75",
        "station": "Heshahangcheng",
        "line1": "16",
        "line2": "",
        "line3": "",
        "line4": "",
        "lat": "31.077433",
        "lng": "121.609809"
    },
    {
        "id": "76",
        "station": "Hongkou Football Stadium",
        "line1": "3",
        "line2": "8",
        "line3": "",
        "line4": "",
        "lat": "31.27144",
        "lng": "121.479276"
    },
    {
        "id": "77",
        "station": "Hongqiao Airport Terminal 1",
        "line1": "10",
        "line2": "",
        "line3": "",
        "line4": "",
        "lat": "31.19137",
        "lng": "121.34708"
    },
    {
        "id": "78",
        "station": "Hongqiao Airport Terminal 2",
        "line1": "2",
        "line2": "10",
        "line3": "",
        "line4": "",
        "lat": "31.192931",
        "lng": "121.326253"
    },
    {
        "id": "79",
        "station": "Hongqiao Railway Station",
        "line1": "2",
        "line2": "10",
        "line3": "",
        "line4": "",
        "lat": "31.192681",
        "lng": "121.321523"
    },
    {
        "id": "80",
        "station": "Hongqiao Road",
        "line1": "3",
        "line2": "4",
        "line3": "10",
        "line4": "",
        "lat": "31.197528",
        "lng": "121.420754"
    },
    {
        "id": "81",
        "station": "Houtan",
        "line1": "7",
        "line2": "",
        "line3": "",
        "line4": "",
        "lat": "31.171757",
        "lng": "121.473878"
    },
    {
        "id": "82",
        "station": "Huamu Road",
        "line1": "7",
        "line2": "",
        "line3": "",
        "line4": "",
        "lat": "31.211435",
        "lng": "121.562801"
    },
    {
        "id": "83",
        "station": "Huangxing Park",
        "line1": "8",
        "line2": "",
        "line3": "",
        "line4": "",
        "lat": "31.295831",
        "lng": "121.533141"
    },
    {
        "id": "84",
        "station": "Huangxing Road",
        "line1": "8",
        "line2": "",
        "line3": "",
        "line4": "",
        "lat": "31.2837378",
        "lng": "121.523119"
    },
    {
        "id": "85",
        "station": "Huaning Road",
        "line1": "5",
        "line2": "",
        "line3": "",
        "line4": "",
        "lat": "31.007371",
        "lng": "121.395271"
    },
    {
        "id": "86",
        "station": "Huaqiao",
        "line1": "11",
        "line2": "",
        "line3": "",
        "line4": "",
        "lat": "31.298934",
        "lng": "121.102369"
    },
    {
        "id": "87",
        "station": "Huinan",
        "line1": "16",
        "line2": "",
        "line3": "",
        "line4": "",
        "lat": "31.053804",
        "lng": "121.762134"
    },
    {
        "id": "88",
        "station": "Hulan Road",
        "line1": "1",
        "line2": "",
        "line3": "",
        "line4": "",
        "lat": "31.339967",
        "lng": "121.437671"
    },
    {
        "id": "89",
        "station": "International Cruise Terminal",
        "line1": "12",
        "line2": "",
        "line3": "",
        "line4": "",
        "lat": "51.4513158",
        "lng": "0.3637175"
    },
    {
        "id": "90",
        "station": "Jiading Xincheng",
        "line1": "11",
        "line2": "",
        "line3": "",
        "line4": "",
        "lat": "31.330186",
        "lng": "121.254259"
    },
    {
        "id": "91",
        "station": "Jianchuan Road",
        "line1": "5",
        "line2": "",
        "line3": "",
        "line4": "",
        "lat": "31.026444",
        "lng": "121.416482"
    },
    {
        "id": "92",
        "station": "Jiangpu Park",
        "line1": "12",
        "line2": "",
        "line3": "",
        "line4": "",
        "lat": "31.264585",
        "lng": "121.523736"
    },
    {
        "id": "93",
        "station": "Jiangpu Road",
        "line1": "8",
        "line2": "",
        "line3": "",
        "line4": "",
        "lat": "31.274936",
        "lng": "121.518346"
    },
    {
        "id": "94",
        "station": "Jiangsu Road",
        "line1": "2",
        "line2": "11",
        "line3": "",
        "line4": "",
        "lat": "31.220526",
        "lng": "121.430689"
    },
    {
        "id": "95",
        "station": "Jiangwan Stadium",
        "line1": "10",
        "line2": "",
        "line3": "",
        "line4": "",
        "lat": "31.303176",
        "lng": "121.514328"
    },
    {
        "id": "96",
        "station": "Jiangwan Town",
        "line1": "3",
        "line2": "",
        "line3": "",
        "line4": "",
        "lat": "31.305591",
        "lng": "121.485091"
    },
    {
        "id": "97",
        "station": "Jiangyue Road",
        "line1": "8",
        "line2": "",
        "line3": "",
        "line4": "",
        "lat": "31.084285",
        "lng": "121.508581"
    },
    {
        "id": "98",
        "station": "Jiaotong University",
        "line1": "10",
        "line2": "11",
        "line3": "",
        "line4": "",
        "lat": "31.202264",
        "lng": "121.435256"
    },
    {
        "id": "99",
        "station": "Jiashan Road",
        "line1": "9",
        "line2": "",
        "line3": "",
        "line4": "",
        "lat": "31.202855",
        "lng": "121.460856"
    },
    {
        "id": "100",
        "station": "Jing'an Temple",
        "line1": "2",
        "line2": "7",
        "line3": "",
        "line4": "",
        "lat": "31.223216",
        "lng": "121.446437"
    },
    {
        "id": "101",
        "station": "Jinhai Road",
        "line1": "12",
        "line2": "",
        "line3": "",
        "line4": "",
        "lat": "31.263439",
        "lng": "121.638491"
    },
    {
        "id": "102",
        "station": "Jinjiang Park",
        "line1": "1",
        "line2": "",
        "line3": "",
        "line4": "",
        "lat": "31.141969",
        "lng": "121.413955"
    },
    {
        "id": "103",
        "station": "Jinjing Road",
        "line1": "12",
        "line2": "",
        "line3": "",
        "line4": "",
        "lat": "31.279821",
        "lng": "121.615335"
    },
    {
        "id": "104",
        "station": "Jinke Road",
        "line1": "2",
        "line2": "",
        "line3": "",
        "line4": "",
        "lat": "31.20422",
        "lng": "121.602038"
    },
    {
        "id": "105",
        "station": "Jinping Road",
        "line1": "5",
        "line2": "",
        "line3": "",
        "line4": "",
        "lat": "31.011138",
        "lng": "121.410198"
    },
    {
        "id": "106",
        "station": "Jinqiao Road",
        "line1": "6",
        "line2": "",
        "line3": "",
        "line4": "",
        "lat": "31.257181",
        "lng": "121.5819"
    },
    {
        "id": "107",
        "station": "Jinshajiang Road",
        "line1": "3",
        "line2": "4",
        "line3": "13",
        "line4": "",
        "lat": "31.232249",
        "lng": "121.413253"
    },
    {
        "id": "108",
        "station": "Jinxiu Road",
        "line1": "7",
        "line2": "",
        "line3": "",
        "line4": "",
        "lat": "31.187594",
        "lng": "121.540185"
    },
    {
        "id": "109",
        "station": "Jinyun Road",
        "line1": "13",
        "line2": "",
        "line3": "",
        "line4": "",
        "lat": "31.241069",
        "lng": "121.320328"
    },
    {
        "id": "110",
        "station": "Jiuting",
        "line1": "9",
        "line2": "",
        "line3": "",
        "line4": "",
        "lat": "31.137548",
        "lng": "121.319379"
    },
    {
        "id": "111",
        "station": "Jufeng Road",
        "line1": "6",
        "line2": "12",
        "line3": "",
        "line4": "",
        "lat": "31.28068",
        "lng": "121.588448"
    },
    {
        "id": "112",
        "station": "Lancun Road",
        "line1": "4",
        "line2": "6",
        "line3": "",
        "line4": "",
        "lat": "31.211854",
        "lng": "121.527734"
    },
    {
        "id": "113",
        "station": "Langao Road",
        "line1": "7",
        "line2": "",
        "line3": "",
        "line4": "",
        "lat": "31.255869",
        "lng": "121.421801"
    },
    {
        "id": "114",
        "station": "Laoximen",
        "line1": "8",
        "line2": "10",
        "line3": "",
        "line4": "",
        "lat": "31.218871",
        "lng": "121.482939"
    },
    {
        "id": "115",
        "station": "Lianhang Road",
        "line1": "8",
        "line2": "",
        "line3": "",
        "line4": "",
        "lat": "31.073607",
        "lng": "121.510562"
    },
    {
        "id": "116",
        "station": "Lianhua Road",
        "line1": "1",
        "line2": "",
        "line3": "",
        "line4": "",
        "lat": "31.130964",
        "lng": "121.402909"
    },
    {
        "id": "117",
        "station": "Lingang Avenue",
        "line1": "16",
        "line2": "",
        "line3": "",
        "line4": "",
        "lat": "30.9356705",
        "lng": "121.8961044"
    },
    {
        "id": "118",
        "station": "Lingkong Road",
        "line1": "2",
        "line2": "",
        "line3": "",
        "line4": "",
        "lat": "31.192655",
        "lng": "121.722817"
    },
    {
        "id": "119",
        "station": "Lingzhao Xincun",
        "line1": "8",
        "line2": "",
        "line3": "",
        "line4": "",
        "lat": "31.141357",
        "lng": "121.489643"
    },
    {
        "id": "120",
        "station": "Linping Road",
        "line1": "4",
        "line2": "",
        "line3": "",
        "line4": "",
        "lat": "31.260924",
        "lng": "121.500935"
    },
    {
        "id": "121",
        "station": "Linyi Xincun",
        "line1": "6",
        "line2": "",
        "line3": "",
        "line4": "",
        "lat": "31.193332",
        "lng": "121.516915"
    },
    {
        "id": "122",
        "station": "Liuhang",
        "line1": "7",
        "line2": "",
        "line3": "",
        "line4": "",
        "lat": "31.357633",
        "lng": "121.362344"
    },
    {
        "id": "123",
        "station": "Liziyuan",
        "line1": "11",
        "line2": "",
        "line3": "",
        "line4": "",
        "lat": "31.269015",
        "lng": "121.389968"
    },
    {
        "id": "124",
        "station": "Longbai Xincun",
        "line1": "10",
        "line2": "",
        "line3": "",
        "line4": "",
        "lat": "31.176852",
        "lng": "121.370411"
    },
    {
        "id": "125",
        "station": "Longcao Road",
        "line1": "3",
        "line2": "",
        "line3": "",
        "line4": "",
        "lat": "31.169463",
        "lng": "121.444393"
    },
    {
        "id": "126",
        "station": "Longchang Road",
        "line1": "12",
        "line2": "",
        "line3": "",
        "line4": "",
        "lat": "31.275359",
        "lng": "121.54489"
    },
    {
        "id": "127",
        "station": "Longde Road",
        "line1": "11",
        "line2": "13",
        "line3": "",
        "line4": "",
        "lat": "31.230506",
        "lng": "121.423545"
    },
    {
        "id": "128",
        "station": "Longhua",
        "line1": "11",
        "line2": "",
        "line3": "",
        "line4": "",
        "lat": "31.172602",
        "lng": "121.452677"
    },
    {
        "id": "129",
        "station": "Longxi Road",
        "line1": "10",
        "line2": "",
        "line3": "",
        "line4": "",
        "lat": "31.194414",
        "lng": "121.380054"
    },
    {
        "id": "130",
        "station": "Longyang Road",
        "line1": "2",
        "line2": "7",
        "line3": "16",
        "line4": "",
        "lat": "31.203185",
        "lng": "121.557656"
    },
    {
        "id": "131",
        "station": "longyao Road",
        "line1": "11",
        "line2": "",
        "line3": "",
        "line4": "",
        "lat": "31.159997",
        "lng": "121.459309"
    },
    {
        "id": "132",
        "station": "Loushanguan Road",
        "line1": "2",
        "line2": "",
        "line3": "",
        "line4": "",
        "lat": "31.211162",
        "lng": "121.403985"
    },
    {
        "id": "133",
        "station": "Luban Road",
        "line1": "4",
        "line2": "",
        "line3": "",
        "line4": "",
        "lat": "31.199208",
        "lng": "121.47506"
    },
    {
        "id": "134",
        "station": "Luheng Road",
        "line1": "8",
        "line2": "",
        "line3": "",
        "line4": "",
        "lat": "31.119179",
        "lng": "121.497773"
    },
    {
        "id": "135",
        "station": "Lujiabang Road",
        "line1": "8",
        "line2": "9",
        "line3": "",
        "line4": "",
        "lat": "31.211772",
        "lng": "121.486108"
    },
    {
        "id": "136",
        "station": "Lujiazui",
        "line1": "2",
        "line2": "",
        "line3": "",
        "line4": "",
        "lat": "31.238073",
        "lng": "121.501632"
    },
    {
        "id": "137",
        "station": "Luonan Xincun",
        "line1": "7",
        "line2": "",
        "line3": "",
        "line4": "",
        "lat": "31.388733",
        "lng": "121.357451"
    },
    {
        "id": "138",
        "station": "Luoshan Road",
        "line1": "11",
        "line2": "16",
        "line3": "",
        "line4": "",
        "lat": "31.152124",
        "lng": "121.593644"
    },
    {
        "id": "139",
        "station": "Madang Road",
        "line1": "9",
        "line2": "",
        "line3": "",
        "line4": "",
        "lat": "31.209321",
        "lng": "121.476494"
    },
    {
        "id": "140",
        "station": "Malu",
        "line1": "11",
        "line2": "",
        "line3": "",
        "line4": "",
        "lat": "31.319556",
        "lng": "121.276783"
    },
    {
        "id": "141",
        "station": "Meilan Lake",
        "line1": "7",
        "line2": "",
        "line3": "",
        "line4": "",
        "lat": "31.401802",
        "lng": "121.35002"
    },
    {
        "id": "142",
        "station": "Middle Chuangxin Road",
        "line1": "2",
        "line2": "",
        "line3": "",
        "line4": "",
        "lat": "31.213868",
        "lng": "121.673749"
    },
    {
        "id": "143",
        "station": "Middle Huaxia Road",
        "line1": "16",
        "line2": "",
        "line3": "",
        "line4": "",
        "lat": "31.169185",
        "lng": "121.584913"
    },
    {
        "id": "144",
        "station": "Middle Longhua Road",
        "line1": "7",
        "line2": "",
        "line3": "",
        "line4": "",
        "lat": "31.184803",
        "lng": "121.457228"
    },
    {
        "id": "145",
        "station": "Middle Yanggao Road",
        "line1": "9",
        "line2": "",
        "line3": "",
        "line4": "",
        "lat": "31.227544",
        "lng": "121.548721"
    },
    {
        "id": "146",
        "station": "Middle Yanji Road",
        "line1": "8",
        "line2": "",
        "line3": "",
        "line4": "",
        "lat": "31.288294",
        "lng": "121.53494"
    },
    {
        "id": "147",
        "station": "Minhang Development Zone",
        "line1": "5",
        "line2": "",
        "line3": "",
        "line4": "",
        "lat": "31.000554",
        "lng": "121.369804"
    },
    {
        "id": "148",
        "station": "Minsheng Road",
        "line1": "6",
        "line2": "",
        "line3": "",
        "line4": "",
        "lat": "31.23585",
        "lng": "121.543525"
    },
    {
        "id": "149",
        "station": "Nanchen Road",
        "line1": "7",
        "line2": "",
        "line3": "",
        "line4": "",
        "lat": "31.321749",
        "lng": "121.398706"
    },
    {
        "id": "150",
        "station": "Nanpu Bridge",
        "line1": "4",
        "line2": "",
        "line3": "",
        "line4": "",
        "lat": "31.20845",
        "lng": "121.499344"
    },
    {
        "id": "151",
        "station": "Nanxiang",
        "line1": "11",
        "line2": "",
        "line3": "",
        "line4": "",
        "lat": "31.296848",
        "lng": "121.323261"
    },
    {
        "id": "152",
        "station": "Nenjiang Road",
        "line1": "8",
        "line2": "",
        "line3": "",
        "line4": "",
        "lat": "31.314702",
        "lng": "121.531952"
    },
    {
        "id": "153",
        "station": "Ningguo Road",
        "line1": "12",
        "line2": "",
        "line3": "",
        "line4": "",
        "lat": "31.268808",
        "lng": "121.532763"
    },
    {
        "id": "154",
        "station": "North Jiading",
        "line1": "11",
        "line2": "",
        "line3": "",
        "line4": "",
        "lat": "31.391511",
        "lng": "121.237326"
    },
    {
        "id": "155",
        "station": "North Jiangyang Road",
        "line1": "3",
        "line2": "",
        "line3": "",
        "line4": "",
        "lat": "31.407856",
        "lng": "121.439823"
    },
    {
        "id": "156",
        "station": "North Sichuan Road",
        "line1": "10",
        "line2": "",
        "line3": "",
        "line4": "",
        "lat": "31.251985",
        "lng": "121.483815"
    },
    {
        "id": "157",
        "station": "North Waigaoqiao Free Trade Zone",
        "line1": "6",
        "line2": "",
        "line3": "",
        "line4": "",
        "lat": "31.347844",
        "lng": "121.586928"
    },
    {
        "id": "158",
        "station": "North Xizang Road",
        "line1": "8",
        "line2": "",
        "line3": "",
        "line4": "",
        "lat": "31.263565",
        "lng": "121.468812"
    },
    {
        "id": "159",
        "station": "North Yanggao Road",
        "line1": "12",
        "line2": "",
        "line3": "",
        "line4": "",
        "lat": "31.280093",
        "lng": "121.603247"
    },
    {
        "id": "160",
        "station": "North Zhongshan Road",
        "line1": "1",
        "line2": "",
        "line3": "",
        "line4": "",
        "lat": "31.258777",
        "lng": "121.459242"
    },
    {
        "id": "161",
        "station": "Oriental Sports Center",
        "line1": "6",
        "line2": "8",
        "line3": "11",
        "line4": "",
        "lat": "31.152904",
        "lng": "121.480011"
    },
    {
        "id": "162",
        "station": "Panguang Road",
        "line1": "7",
        "line2": "",
        "line3": "",
        "line4": "",
        "lat": "31.364179",
        "lng": "121.355837"
    },
    {
        "id": "163",
        "station": "Pengpu Xincun",
        "line1": "1",
        "line2": "",
        "line3": "",
        "line4": "",
        "lat": "31.306752",
        "lng": "121.44864"
    },
    {
        "id": "164",
        "station": "People's Square",
        "line1": "1",
        "line2": "2",
        "line3": "8",
        "line4": "",
        "lat": "31.232844",
        "lng": "121.47537"
    },
    {
        "id": "165",
        "station": "Pudian Road",
        "line1": "4",
        "line2": "6",
        "line3": "",
        "line4": "",
        "lat": "31.222367",
        "lng": "121.532052"
    },
    {
        "id": "166",
        "station": "Pudong Avenue",
        "line1": "4",
        "line2": "",
        "line3": "",
        "line4": "",
        "lat": "31.240123",
        "lng": "121.519322"
    },
    {
        "id": "167",
        "station": "Pudong International Airport",
        "line1": "2",
        "line2": "",
        "line3": "",
        "line4": "",
        "lat": "31.150462",
        "lng": "121.805853"
    },
    {
        "id": "168",
        "station": "Pujiang Town",
        "line1": "8",
        "line2": "",
        "line3": "",
        "line4": "",
        "lat": "31.096632",
        "lng": "121.506247"
    },
    {
        "id": "169",
        "station": "Pusan Road",
        "line1": "11",
        "line2": "",
        "line3": "",
        "line4": "",
        "lat": "31.150843",
        "lng": "121.538828"
    },
    {
        "id": "170",
        "station": "Qibao",
        "line1": "9",
        "line2": "",
        "line3": "",
        "line4": "",
        "lat": "30.302009",
        "lng": "120.239681"
    },
    {
        "id": "171",
        "station": "Qihua Road",
        "line1": "7",
        "line2": "",
        "line3": "",
        "line4": "",
        "lat": "31.322857",
        "lng": "121.377911"
    },
    {
        "id": "172",
        "station": "Qilianshan Road",
        "line1": "11",
        "line2": "",
        "line3": "",
        "line4": "",
        "lat": "31.27163",
        "lng": "121.375963"
    },
    {
        "id": "173",
        "station": "Qufu Road",
        "line1": "8",
        "line2": "12",
        "line3": "",
        "line4": "",
        "lat": "31.242307",
        "lng": "121.471543"
    },
    {
        "id": "174",
        "station": "Quyang Road",
        "line1": "8",
        "line2": "",
        "line3": "",
        "line4": "",
        "lat": "31.27652",
        "lng": "121.49071"
    },
    {
        "id": "175",
        "station": "Sanlin",
        "line1": "11",
        "line2": "",
        "line3": "",
        "line4": "",
        "lat": "31.143023",
        "lng": "121.510793"
    },
    {
        "id": "176",
        "station": "Sanmen Road",
        "line1": "10",
        "line2": "",
        "line3": "",
        "line4": "",
        "lat": "31.313165",
        "lng": "121.508293"
    },
    {
        "id": "177",
        "station": "Shangcheng Road",
        "line1": "9",
        "line2": "",
        "line3": "",
        "line4": "",
        "lat": "31.230385",
        "lng": "121.516191"
    },
    {
        "id": "178",
        "station": "Shangda Road",
        "line1": "7",
        "line2": "",
        "line3": "",
        "line4": "",
        "lat": "31.31478",
        "lng": "121.408662"
    },
    {
        "id": "179",
        "station": "Shanghai Automobile City",
        "line1": "11",
        "line2": "",
        "line3": "",
        "line4": "",
        "lat": "31.285386",
        "lng": "121.180808"
    },
    {
        "id": "180",
        "station": "Shanghai Children's Medical Center",
        "line1": "6",
        "line2": "",
        "line3": "",
        "line4": "",
        "lat": "31.203278",
        "lng": "121.5235"
    },
    {
        "id": "181",
        "station": "Shanghai Circuit",
        "line1": "11",
        "line2": "",
        "line3": "",
        "line4": "",
        "lat": "31.33186",
        "lng": "121.225956"
    },
    {
        "id": "182",
        "station": "Shanghai Circus World",
        "line1": "1",
        "line2": "",
        "line3": "",
        "line4": "",
        "lat": "31.279561",
        "lng": "121.452043"
    },
    {
        "id": "183",
        "station": "Shanghai Indoor Stadium",
        "line1": "1",
        "line2": "4",
        "line3": "",
        "line4": "",
        "lat": "31.182781",
        "lng": "121.437277"
    },
    {
        "id": "184",
        "station": "Shanghai Library",
        "line1": "10",
        "line2": "",
        "line3": "",
        "line4": "",
        "lat": "31.208055",
        "lng": "121.444275"
    },
    {
        "id": "185",
        "station": "Shanghai Railway Station",
        "line1": "1",
        "line2": "3",
        "line3": "4",
        "line4": "",
        "lat": "31.251339",
        "lng": "121.456226"
    },
    {
        "id": "186",
        "station": "Shanghai Science And Technology Museum",
        "line1": "2",
        "line2": "",
        "line3": "",
        "line4": "",
        "lat": "31.2220646",
        "lng": "121.5379928"
    },
    {
        "id": "187",
        "station": "Shanghai South Railway Station",
        "line1": "1",
        "line2": "3",
        "line3": "",
        "line4": "",
        "lat": "31.154838",
        "lng": "121.430451"
    },
    {
        "id": "188",
        "station": "Shanghai Stadium",
        "line1": "4",
        "line2": "",
        "line3": "",
        "line4": "",
        "lat": "31.185529",
        "lng": "121.44347"
    },
    {
        "id": "189",
        "station": "Shanghai Swimming Center",
        "line1": "11",
        "line2": "",
        "line3": "",
        "line4": "",
        "lat": "31.179464",
        "lng": "121.441468"
    },
    {
        "id": "190",
        "station": "Shanghai University",
        "line1": "7",
        "line2": "",
        "line3": "",
        "line4": "",
        "lat": "31.320613",
        "lng": "121.388989"
    },
    {
        "id": "191",
        "station": "Shanghai Zoo",
        "line1": "10",
        "line2": "",
        "line3": "",
        "line4": "",
        "lat": "31.190246",
        "lng": "121.368146"
    },
    {
        "id": "192",
        "station": "Shangnan Road",
        "line1": "6",
        "line2": "",
        "line3": "",
        "line4": "",
        "lat": "31.148821",
        "lng": "121.506491"
    },
    {
        "id": "193",
        "station": "Shendu Highway",
        "line1": "8",
        "line2": "",
        "line3": "",
        "line4": "",
        "lat": "31.061394",
        "lng": "121.512229"
    },
    {
        "id": "194",
        "station": "Shenjiang Road",
        "line1": "12",
        "line2": "",
        "line3": "",
        "line4": "",
        "lat": "31.280189",
        "lng": "121.626781"
    },
    {
        "id": "195",
        "station": "Sheshan",
        "line1": "9",
        "line2": "",
        "line3": "",
        "line4": "",
        "lat": "31.104323",
        "lng": "121.229732"
    },
    {
        "id": "196",
        "station": "Shiguang Road",
        "line1": "8",
        "line2": "",
        "line3": "",
        "line4": "",
        "lat": "31.322757",
        "lng": "121.531934"
    },
    {
        "id": "197",
        "station": "Shilong Road",
        "line1": "3",
        "line2": "",
        "line3": "",
        "line4": "",
        "lat": "31.157932",
        "lng": "121.443197"
    },
    {
        "id": "198",
        "station": "Shuichan Road",
        "line1": "3",
        "line2": "",
        "line3": "",
        "line4": "",
        "lat": "31.381302",
        "lng": "121.488242"
    },
    {
        "id": "199",
        "station": "Shuicheng Road",
        "line1": "10",
        "line2": "",
        "line3": "",
        "line4": "",
        "lat": "31.199453",
        "lng": "121.39213"
    },
    {
        "id": "200",
        "station": "Shuyuan",
        "line1": "16",
        "line2": "",
        "line3": "",
        "line4": "",
        "lat": "30.959553",
        "lng": "121.850021"
    },
    {
        "id": "201",
        "station": "Sijing",
        "line1": "9",
        "line2": "",
        "line3": "",
        "line4": "",
        "lat": "31.118306",
        "lng": "121.260308"
    },
    {
        "id": "202",
        "station": "Siping Road",
        "line1": "8",
        "line2": "10",
        "line3": "",
        "line4": "",
        "lat": "31.274879",
        "lng": "121.501481"
    },
    {
        "id": "203",
        "station": "Songbin Road",
        "line1": "3",
        "line2": "",
        "line3": "",
        "line4": "",
        "lat": "31.371026",
        "lng": "121.492858"
    },
    {
        "id": "204",
        "station": "Songfa Road",
        "line1": "3",
        "line2": "",
        "line3": "",
        "line4": "",
        "lat": "31.345127",
        "lng": "121.500464"
    },
    {
        "id": "205",
        "station": "Songhong Road",
        "line1": "2",
        "line2": "",
        "line3": "",
        "line4": "",
        "lat": "31.218255",
        "lng": "121.359278"
    },
    {
        "id": "206",
        "station": "Songjiang South Railway Station",
        "line1": "9",
        "line2": "",
        "line3": "",
        "line4": "",
        "lat": "30.982412",
        "lng": "121.230476"
    },
    {
        "id": "207",
        "station": "Songjiang Sports Center",
        "line1": "9",
        "line2": "",
        "line3": "",
        "line4": "",
        "lat": "31.015773",
        "lng": "121.230509"
    },
    {
        "id": "208",
        "station": "Songjiang University Town",
        "line1": "9",
        "line2": "",
        "line3": "",
        "line4": "",
        "lat": "31.054089",
        "lng": "121.232617"
    },
    {
        "id": "209",
        "station": "Songjiang Xincheng",
        "line1": "9",
        "line2": "",
        "line3": "",
        "line4": "",
        "lat": "31.03031",
        "lng": "121.230739"
    },
    {
        "id": "210",
        "station": "Songyuan Road",
        "line1": "10",
        "line2": "",
        "line3": "",
        "line4": "",
        "lat": "31.196435",
        "lng": "121.411711"
    },
    {
        "id": "211",
        "station": "South Changjiang Road",
        "line1": "3",
        "line2": "",
        "line3": "",
        "line4": "",
        "lat": "31.331957",
        "lng": "121.491485"
    },
    {
        "id": "212",
        "station": "South Huangpi Road",
        "line1": "1",
        "line2": "",
        "line3": "",
        "line4": "",
        "lat": "31.222729",
        "lng": "121.473292"
    },
    {
        "id": "213",
        "station": "South Lingyan Road",
        "line1": "6",
        "line2": "",
        "line3": "",
        "line4": "",
        "lat": "31.14876",
        "lng": "121.495077"
    },
    {
        "id": "214",
        "station": "South Qilianshan Road",
        "line1": "13",
        "line2": "",
        "line3": "",
        "line4": "",
        "lat": "31.237806",
        "lng": "121.367339"
    },
    {
        "id": "215",
        "station": "South Shaanxi Road",
        "line1": "1",
        "line2": "10",
        "line3": "",
        "line4": "",
        "lat": "39.0303891",
        "lng": "117.8073252"
    },
    {
        "id": "216",
        "station": "South Waigaoqiao Free Trade Zone",
        "line1": "6",
        "line2": "",
        "line3": "",
        "line4": "",
        "lat": "31.321603",
        "lng": "121.601993"
    },
    {
        "id": "217",
        "station": "South Xizang Road",
        "line1": "4",
        "line2": "8",
        "line3": "",
        "line4": "",
        "lat": "31.201963",
        "lng": "121.489561"
    },
    {
        "id": "218",
        "station": "South Yanggao Road",
        "line1": "7",
        "line2": "",
        "line3": "",
        "line4": "",
        "lat": "31.187573",
        "lng": "121.525106"
    },
    {
        "id": "219",
        "station": "Tangqiao",
        "line1": "4",
        "line2": "",
        "line3": "",
        "line4": "",
        "lat": "31.209798",
        "lng": "121.518625"
    },
    {
        "id": "220",
        "station": "Tangzhen",
        "line1": "2",
        "line2": "",
        "line3": "",
        "line4": "",
        "lat": "31.208325",
        "lng": "121.656026"
    },
    {
        "id": "221",
        "station": "Taopu Xincun",
        "line1": "11",
        "line2": "",
        "line3": "",
        "line4": "",
        "lat": "31.281663",
        "lng": "121.349776"
    },
    {
        "id": "222",
        "station": "Tech Park",
        "line1": "9",
        "line2": "",
        "line3": "",
        "line4": "",
        "lat": "22.540244",
        "lng": "113.953955"
    },
    {
        "id": "223",
        "station": "Tiantong Road",
        "line1": "10",
        "line2": "12",
        "line3": "",
        "line4": "",
        "lat": "31.243908",
        "lng": "121.482449"
    },
    {
        "id": "224",
        "station": "Tieli Road",
        "line1": "3",
        "line2": "",
        "line3": "",
        "line4": "",
        "lat": "31.40803",
        "lng": "121.462335"
    },
    {
        "id": "225",
        "station": "Tilanqiao",
        "line1": "12",
        "line2": "",
        "line3": "",
        "line4": "",
        "lat": "31.253585",
        "lng": "121.506631"
    },
    {
        "id": "226",
        "station": "Tonghe Xincun",
        "line1": "1",
        "line2": "",
        "line3": "",
        "line4": "",
        "lat": "31.331259",
        "lng": "121.441479"
    },
    {
        "id": "227",
        "station": "Tongji University",
        "line1": "10",
        "line2": "",
        "line3": "",
        "line4": "",
        "lat": "31.282182",
        "lng": "121.50631"
    },
    {
        "id": "228",
        "station": "Waihuanlu",
        "line1": "1",
        "line2": "",
        "line3": "",
        "line4": "",
        "lat": "31.120602",
        "lng": "121.392774"
    },
    {
        "id": "229",
        "station": "Weining Road",
        "line1": "2",
        "line2": "",
        "line3": "",
        "line4": "",
        "lat": "31.214949",
        "lng": "121.386932"
    },
    {
        "id": "230",
        "station": "Wenjing Road",
        "line1": "5",
        "line2": "",
        "line3": "",
        "line4": "",
        "lat": "31.003483",
        "lng": "121.380751"
    },
    {
        "id": "231",
        "station": "Wenshui Road",
        "line1": "1",
        "line2": "",
        "line3": "",
        "line4": "",
        "lat": "31.292749",
        "lng": "121.450207"
    },
    {
        "id": "232",
        "station": "West Gaoke Road",
        "line1": "6",
        "line2": "7",
        "line3": "",
        "line4": "",
        "lat": "31.185757",
        "lng": "121.509787"
    },
    {
        "id": "233",
        "station": "West Huaxia Road",
        "line1": "6",
        "line2": "",
        "line3": "",
        "line4": "",
        "lat": "31.149858",
        "lng": "121.514515"
    },
    {
        "id": "234",
        "station": "West Jiading",
        "line1": "11",
        "line2": "",
        "line3": "",
        "line4": "",
        "lat": "31.377193",
        "lng": "121.227848"
    },
    {
        "id": "235",
        "station": "West Jinshajiang Road",
        "line1": "13",
        "line2": "",
        "line3": "",
        "line4": "",
        "lat": "31.241137",
        "lng": "121.335275"
    },
    {
        "id": "236",
        "station": "West Nanjing Road",
        "line1": "2",
        "line2": "",
        "line3": "",
        "line4": "",
        "lat": "31.229724",
        "lng": "121.459716"
    },
    {
        "id": "237",
        "station": "West Shanghai Railway Station",
        "line1": "11",
        "line2": "",
        "line3": "",
        "line4": "",
        "lat": "31.262286",
        "lng": "121.403743"
    },
    {
        "id": "238",
        "station": "West Yan'an Road",
        "line1": "3",
        "line2": "4",
        "line3": "",
        "line4": "",
        "lat": "31.20958",
        "lng": "121.417063"
    },
    {
        "id": "239",
        "station": "West Yingao Road",
        "line1": "3",
        "line2": "",
        "line3": "",
        "line4": "",
        "lat": "31.319981",
        "lng": "121.484957"
    },
    {
        "id": "240",
        "station": "West Youyi Road",
        "line1": "1",
        "line2": "",
        "line3": "",
        "line4": "",
        "lat": "31.381165",
        "lng": "121.427981"
    },
    {
        "id": "241",
        "station": "Wild Animal Park",
        "line1": "16",
        "line2": "",
        "line3": "",
        "line4": "",
        "lat": "31.0547658",
        "lng": "121.7243301"
    },
    {
        "id": "242",
        "station": "Wujiaochang",
        "line1": "10",
        "line2": "",
        "line3": "",
        "line4": "",
        "lat": "31.297803",
        "lng": "121.514516"
    },
    {
        "id": "243",
        "station": "Wulian Road",
        "line1": "6",
        "line2": "",
        "line3": "",
        "line4": "",
        "lat": "31.272075",
        "lng": "121.587967"
    },
    {
        "id": "244",
        "station": "Wuning Road",
        "line1": "13",
        "line2": "",
        "line3": "",
        "line4": "",
        "lat": "31.2453754",
        "lng": "121.4080024"
    },
    {
        "id": "245",
        "station": "Wuwei Road",
        "line1": "11",
        "line2": "",
        "line3": "",
        "line4": "",
        "lat": "31.276576",
        "lng": "121.364746"
    },
    {
        "id": "246",
        "station": "Wuzhou Avenue",
        "line1": "6",
        "line2": "",
        "line3": "",
        "line4": "",
        "lat": "31.302589",
        "lng": "121.589322"
    },
    {
        "id": "247",
        "station": "Xiangyin Road",
        "line1": "8",
        "line2": "",
        "line3": "",
        "line4": "",
        "lat": "31.30513",
        "lng": "121.531976"
    },
    {
        "id": "248",
        "station": "Xiaonanmen",
        "line1": "9",
        "line2": "",
        "line3": "",
        "line4": "",
        "lat": "31.216698",
        "lng": "121.498373"
    },
    {
        "id": "249",
        "station": "Xinchang",
        "line1": "16",
        "line2": "",
        "line3": "",
        "line4": "",
        "lat": "31.044968",
        "lng": "121.648868"
    },
    {
        "id": "250",
        "station": "Xincun Road",
        "line1": "7",
        "line2": "",
        "line3": "",
        "line4": "",
        "lat": "31.264243",
        "lng": "121.422727"
    },
    {
        "id": "251",
        "station": "Xingzhi Road",
        "line1": "7",
        "line2": "",
        "line3": "",
        "line4": "",
        "lat": "31.285047",
        "lng": "121.421428"
    },
    {
        "id": "252",
        "station": "Xingzhong Road",
        "line1": "9",
        "line2": "",
        "line3": "",
        "line4": "",
        "lat": "31.158148",
        "lng": "121.368696"
    },
    {
        "id": "253",
        "station": "Xinjiangwancheng",
        "line1": "10",
        "line2": "",
        "line3": "",
        "line4": "",
        "lat": "31.328588",
        "lng": "121.506766"
    },
    {
        "id": "254",
        "station": "Xintiandi",
        "line1": "10",
        "line2": "",
        "line3": "",
        "line4": "",
        "lat": "31.216393",
        "lng": "121.475082"
    },
    {
        "id": "255",
        "station": "Xinzha Road",
        "line1": "1",
        "line2": "",
        "line3": "",
        "line4": "",
        "lat": "31.238456",
        "lng": "121.467936"
    },
    {
        "id": "256",
        "station": "Xinzhuang",
        "line1": "1",
        "line2": "5",
        "line3": "",
        "line4": "",
        "lat": "31.11109",
        "lng": "121.385346"
    },
    {
        "id": "257",
        "station": "Xujiahui",
        "line1": "1",
        "line2": "9",
        "line3": "11",
        "line4": "",
        "lat": "31.194339",
        "lng": "121.436212"
    },
    {
        "id": "258",
        "station": "Yanchang Road ",
        "line1": "1",
        "line2": "",
        "line3": "",
        "line4": "",
        "lat": "31.2714",
        "lng": "121.455517"
    },
    {
        "id": "259",
        "station": "Yangshupu Road",
        "line1": "4",
        "line2": "",
        "line3": "",
        "line4": "",
        "lat": "31.252181",
        "lng": "121.517"
    },
    {
        "id": "260",
        "station": "Yangsi",
        "line1": "8",
        "line2": "",
        "line3": "",
        "line4": "",
        "lat": "31.161067",
        "lng": "121.493463"
    },
    {
        "id": "261",
        "station": "Yaohua Road",
        "line1": "7",
        "line2": "8",
        "line3": "",
        "line4": "",
        "lat": "31.178524",
        "lng": "121.494671"
    },
    {
        "id": "262",
        "station": "Yili Road",
        "line1": "10",
        "line2": "",
        "line3": "",
        "line4": "",
        "lat": "31.198918",
        "lng": "121.403839"
    },
    {
        "id": "263",
        "station": "Yindu Road",
        "line1": "5",
        "line2": "",
        "line3": "",
        "line4": "",
        "lat": "31.089296",
        "lng": "121.390298"
    },
    {
        "id": "264",
        "station": "Yishan Road",
        "line1": "3",
        "line2": "4",
        "line3": "9",
        "line4": "",
        "lat": "31.186704",
        "lng": "121.427187"
    },
    {
        "id": "265",
        "station": "Youdian Xincun",
        "line1": "10",
        "line2": "",
        "line3": "",
        "line4": "",
        "lat": "31.268641",
        "lng": "121.494488"
    },
    {
        "id": "266",
        "station": "Youyi Road",
        "line1": "3",
        "line2": "",
        "line3": "",
        "line4": "",
        "lat": "31.404014",
        "lng": "121.47595"
    },
    {
        "id": "267",
        "station": "Yuandong Avenue",
        "line1": "2",
        "line2": "",
        "line3": "",
        "line4": "",
        "lat": "31.199442",
        "lng": "121.755354"
    },
    {
        "id": "268",
        "station": "Yuanshen Stadium",
        "line1": "6",
        "line2": "",
        "line3": "",
        "line4": "",
        "lat": "31.23298",
        "lng": "121.534568"
    },
    {
        "id": "269",
        "station": "Yunjin Road",
        "line1": "11",
        "line2": "",
        "line3": "",
        "line4": "",
        "lat": "31.167489",
        "lng": "121.457911"
    },
    {
        "id": "270",
        "station": "Yunshan Road",
        "line1": "6",
        "line2": "",
        "line3": "",
        "line4": "",
        "lat": "31.250389",
        "lng": "121.572733"
    },
    {
        "id": "271",
        "station": "Yuntai Road",
        "line1": "7",
        "line2": "",
        "line3": "",
        "line4": "",
        "lat": "31.182128",
        "lng": "121.500375"
    },
    {
        "id": "272",
        "station": "Yuqiao",
        "line1": "11",
        "line2": "",
        "line3": "",
        "line4": "",
        "lat": "31.158316",
        "lng": "121.571655"
    },
    {
        "id": "273",
        "station": "Yuyuan Garden",
        "line1": "10",
        "line2": "",
        "line3": "",
        "line4": "",
        "lat": "31.228112",
        "lng": "121.487387"
    },
    {
        "id": "274",
        "station": "Zhanghuabang",
        "line1": "3",
        "line2": "",
        "line3": "",
        "line4": "",
        "lat": "31.358022",
        "lng": "121.498709"
    },
    {
        "id": "275",
        "station": "Zhangjiang High Technology Park",
        "line1": "2",
        "line2": "",
        "line3": "",
        "line4": "",
        "lat": "31.201832",
        "lng": "121.587751"
    },
    {
        "id": "276",
        "station": "Zhaofeng Road",
        "line1": "11",
        "line2": "",
        "line3": "",
        "line4": "",
        "lat": "31.288975",
        "lng": "121.150348"
    },
    {
        "id": "277",
        "station": "Zhaojiabang Road",
        "line1": "7",
        "line2": "9",
        "line3": "",
        "line4": "",
        "lat": "31.199513",
        "lng": "121.45034"
    },
    {
        "id": "278",
        "station": "Zhenbei Road",
        "line1": "13",
        "line2": "",
        "line3": "",
        "line4": "",
        "lat": "31.232362",
        "lng": "121.38163"
    },
    {
        "id": "279",
        "station": "Zhenping Road",
        "line1": "3",
        "line2": "4",
        "line3": "7",
        "line4": "",
        "lat": "31.246385",
        "lng": "121.429829"
    },
    {
        "id": "280",
        "station": "Zhenru",
        "line1": "11",
        "line2": "",
        "line3": "",
        "line4": "",
        "lat": "31.250837",
        "lng": "121.407194"
    },
    {
        "id": "281",
        "station": "Zhongchun Road",
        "line1": "9",
        "line2": "",
        "line3": "",
        "line4": "",
        "lat": "31.149384",
        "lng": "121.337763"
    },
    {
        "id": "282",
        "station": "Zhongshan Park",
        "line1": "2",
        "line2": "3",
        "line3": "4",
        "line4": "",
        "lat": "31.218006",
        "lng": "121.415704"
    },
    {
        "id": "283",
        "station": "Zhongtan Road",
        "line1": "3",
        "line2": "4",
        "line3": "",
        "line4": "",
        "lat": "31.254701",
        "lng": "121.441192"
    },
    {
        "id": "284",
        "station": "Zhongxing Road",
        "line1": "8",
        "line2": "",
        "line3": "",
        "line4": "",
        "lat": "31.253137",
        "lng": "121.469046"
    },
    {
        "id": "285",
        "station": "Zhouhai Road",
        "line1": "6",
        "line2": "",
        "line3": "",
        "line4": "",
        "lat": "31.312317",
        "lng": "121.589407"
    },
    {
        "id": "286",
        "station": "Zhuanqiao",
        "line1": "5",
        "line2": "",
        "line3": "",
        "line4": "",
        "lat": "31.066921",
        "lng": "121.401915"
    },
    {
        "id": "287",
        "station": "Ziteng Road",
        "line1": "10",
        "line2": "",
        "line3": "",
        "line4": "",
        "lat": "31.16954",
        "lng": "121.364482"
    },
    {
        "id": "288",
        "station": "Zuibaichi Park",
        "line1": "9",
        "line2": "",
        "line3": "",
        "line4": "",
        "lat": "31.001414",
        "lng": "121.229629"
    }
]