[{"id":2169568531,"wifi":"Free and Unlimited","latte":"119 rmb","brand":"Costa","name":"SH Langao Rd","addresseng":"Room 106, No.68, TongChuan Rd, Putuo District, Shanghai","addresscn":"上海普陀区铜川路68号","open1":"","open2":"","open3":"","open4":"","description":"","phone":"3353 5989","website":"http://www.costa.com.cn","lat":31.2549730732,"lng":121.4201490852},{"id":2169568530,"wifi":"Free and Unlimited","latte":"118 rmb","brand":"Costa","name":"SH F1","addresseng":"No.2000, AnTing Town, YiNing Rd, Jiading District, Shanghai","addresscn":"上海市嘉定区安亭镇伊宁路2000号","open1":"","open2":"","open3":"","open4":"","description":"","phone":"021-6956 8530","website":"http://www.costa.com.cn","lat":31.3354853113,"lng":121.2273223227},{"id":2169503640,"wifi":"Free and Unlimited","latte":"117 rmb","brand":"Costa","name":"SH Jiatinghui Plaza","addresseng":"Unit 202, 2F, Shanghai JiaTingHui City Life Square, No.1055, North MoYu Rd, Jiading District, Shanghai","addresscn":"上海市嘉定区墨玉南路1055号上海嘉亭荟城市生活广场2楼202单元","open1":"","open2":"","open3":"","open4":"","description":"","phone":"021-6950 3640","website":"http://www.costa.com.cn","lat":31.2879006991,"lng":121.1626311258},{"id":2168739675,"wifi":"Free and Unlimited","latte":"116 rmb","brand":"Costa","name":"SH Youyou","addresseng":"No.76,PuJian Rd, Pudong New District, Shanghai","addresscn":"上海浦东新区浦建路76号","open1":"","open2":"","open3":"","open4":"","description":"","phone":"021-6873 9675","website":"http://www.costa.com.cn","lat":31.2082811046,"lng":121.5193858129},{"id":2168660886,"wifi":"Free and Unlimited","latte":"115 rmb","brand":"Costa","name":"SH Lianyang","addresseng":"Unit A-127, 1F, “LianYang Square”, No.300, FangDian Rd, Pudong New District, Shanghai","addresscn":"上海市浦东新区芳甸路300号“联洋广场”A区一层A127单元","open1":"","open2":"","open3":"","open4":"","description":"","phone":"021-6866 0886","website":"http://www.costa.com.cn","lat":31.2265848052,"lng":121.5582432908},{"id":2167760458,"wifi":"Free and Unlimited","latte":"114 rmb","brand":"Costa","name":"SH SJ PingGao","addresseng":"1F, No.30, Lane 79, ZhongShan Rd, Songjiang District, Shanghai","addresscn":"上海松江区中山中路79弄30号 1楼","open1":"","open2":"","open3":"","open4":"","description":"","phone":"021-6776 0458","website":"http://www.costa.com.cn","lat":31.0059355488,"lng":121.2354416913},{"id":2166053389,"wifi":"Free and Unlimited","latte":"113 rmb","brand":"Costa","name":"SH Hongkou park","addresseng":"No.2398, North SiChuan Rd, Hongkou District, Shanghai","addresscn":"上海市虹口区四川北路2398号（近黄渡路）","open1":"","open2":"","open3":"","open4":"","description":"","phone":"021-6605 3389","website":"http://www.costa.com.cn","lat":31.2686652831,"lng":121.4815074147},{"id":2166033016,"wifi":"Free and Unlimited","latte":"112 rmb","brand":"Costa","name":"SH Gucun Park","addresseng":"Rm101, No.11, Avenue 111, Luxiang Rd, Baoshan District, Shanghai","addresscn":"上海市宝山区陆翔路111弄11号101室（靠近顾村公园地铁站3号口）","open1":"","open2":"","open3":"","open4":"","description":"","phone":"021-6603 3016","website":"http://www.costa.com.cn","lat":31.3463773656,"lng":121.3710901956},{"id":2165808180,"wifi":"Free and Unlimited","latte":"111 rmb","brand":"Costa","name":"SH Ruihong Newcity","addresseng":"No100, RuiHong Rd, Hongkou District, Shanghai","addresscn":"上海市虹口区瑞虹路100号","open1":"","open2":"","open3":"","open4":"","description":"","phone":"021-6580 8180","website":"http://www.costa.com.cn","lat":31.2615471774,"lng":121.4979289801},{"id":2165379893,"wifi":"Free and Unlimited","latte":"110 rmb","brand":"Costa","name":"SH Wujiaochangwanda","addresseng":"B-02, No.77, SongHu Rd, Yangpu District, Shanghai","addresscn":"上海市杨浦区淞沪路77号地下一层B-02","open1":"","open2":"","open3":"","open4":"","description":"","phone":"021-6537 9893","website":"http://www.costa.com.cn","lat":31.3009186676,"lng":121.5140857943},{"id":2164826126,"wifi":"Free and Unlimited","latte":"109 rmb","brand":"Costa","name":"SH Z Star Plaza","addresseng":"RM, 101-111 ,No.9, PuBei Rd, Xuhui  District, Shanghai","addresscn":"上海市徐汇区浦北路9号101, 111","open1":"","open2":"","open3":"","open4":"","description":"","phone":"021-6482 6126","website":"http://www.costa.com.cn","lat":31.1588070136,"lng":121.4284402923},{"id":2164741223,"wifi":"Free and Unlimited","latte":"108 rmb","brand":"Costa","name":"SH New World LW","addresseng":"Unit 20030A, 20040A, No.939-947, Middle HuaiHai Rd, Luwan District, Shanghai","addresscn":"上海市黄浦区淮海中路939号至947号地面二层的第三至第四号商铺","open1":"","open2":"","open3":"","open4":"","description":"","phone":"021-6474 1223","website":"http://www.costa.com.cn","lat":31.2169019773,"lng":121.4595100899},{"id":2164693630,"wifi":"Free and Unlimited","latte":"107 rmb","brand":"Costa","name":"SH Oriental Department","addresseng":"B03-F02-1-047, 2F, Orient Shopping Centre, No.8, North Caoxi Rd, Xuhui Distrct, Shanghai","addresscn":"上海市徐汇区漕溪路8号东方商厦二层B03-F02-1-047","open1":"","open2":"","open3":"","open4":"","description":"","phone":"021-6469 3630","website":"http://www.costa.com.cn","lat":31.1935449727,"lng":121.4377045849},{"id":2164668081,"wifi":"Free and Unlimited","latte":"106 rmb","brand":"Costa","name":"SH MeiYueHua","addresseng":"No.238, ZhaoJiaBang Rd, Xuhui Distrct, Shanghai","addresscn":"上海市徐汇区肇嘉滨路238号","open1":"","open2":"","open3":"","open4":"","description":"","phone":"021-6466 8081","website":"http://www.costa.com.cn","lat":31.2055019878,"lng":121.4671179393},{"id":2164651330,"wifi":"Free and Unlimited","latte":"105 rmb","brand":"Costa","name":"SH Huacao","addresseng":"Unit102, Lane4, No.569, YunLe Rd, Minhang Distric, Shanghai","addresscn":"上海闵行区运乐路569弄4号102单元","open1":"","open2":"","open3":"","open4":"","description":"","phone":"021-6465 1330","website":"http://www.costa.com.cn","lat":31.2039160678,"lng":121.2832867218},{"id":2164268826,"wifi":"Free and Unlimited","latte":"104 rmb","brand":"Costa","name":"SH Ascendes","addresseng":"Room 110, 1F, Ascendas Plaza, No.333, TianYaoQiao Rd, Xuhui Distrct, Shanghai","addresscn":"上海市徐汇区天钥桥路333号腾飞大厦1楼110室","open1":"","open2":"","open3":"","open4":"","description":"","phone":"021-6426 8826","website":"http://www.costa.com.cn","lat":31.1885748217,"lng":121.4422762879},{"id":2164226862,"wifi":"Free and Unlimited","latte":"103 rmb","brand":"Costa","name":"SH Fenyang Road","addresseng":"Room 101, No.3, FenYang Rd, Xuhui Distrct, Shanghai","addresscn":"上海市徐汇区汾阳路3号1楼101单元","open1":"","open2":"","open3":"","open4":"","description":"","phone":"021-6422 6862","website":"http://www.costa.com.cn","lat":31.2144133953,"lng":121.4557975793},{"id":2164160683,"wifi":"Free and Unlimited","latte":"102 rmb","brand":"Costa","name":"SH iapm","addresseng":"Room.241-243, (LG2), IAPM Plaza, No.999, Central Huaihai Rd, Xuhui, Shanghai","addresscn":"徐汇区淮海中路999号上海环贸广场地下1层（LG2)241-243室","open1":"","open2":"","open3":"","open4":"","description":"","phone":"021-6416 0683","website":"http://www.costa.com.cn","lat":31.2155895609,"lng":121.4582352881},{"id":2164122191,"wifi":"Free and Unlimited","latte":"101 rmb","brand":"Costa","name":"SH South Shopping Mall","addresseng":"1F,  South Bailian Shopping Mall, No.7388, HuMin Rd, Minhang District, Shanghai","addresscn":"上海闵行区沪闵路7388号百联南方购物中心 一楼","open1":"","open2":"","open3":"","open4":"","description":"","phone":"021-6412 2191","website":"http://www.costa.com.cn","lat":31.1312202212,"lng":121.4013187838},{"id":2164065909,"wifi":"Free and Unlimited","latte":"100 rmb","brand":"Costa","name":"SH HongMei Rd","addresseng":"No.3196, HongMei Rd, Minhang District, Shanghai","addresscn":"上海市闵行区虹梅路3196号(近华光路）","open1":"","open2":"","open3":"","open4":"","description":"","phone":"021-6406 5909","website":"http://www.costa.com.cn","lat":31.1879626947,"lng":121.3872979619},{"id":2164047144,"wifi":"Free and Unlimited","latte":"99 rmb","brand":"Costa","name":"SH Sinan Villa","addresseng":"Room 103, No.5, 1F, Lane 507, Middle FuXing Rd, Luwan Distrct, Shanghai","addresscn":"上海市黄浦区复兴中路507弄5号1层103室","open1":"","open2":"","open3":"","open4":"","description":"","phone":"021-6404 7144","website":"http://www.costa.com.cn","lat":31.2153120499,"lng":121.4698573645},{"id":2163512916,"wifi":"Free and Unlimited","latte":"98 rmb","brand":"Costa","name":"SH Ramada","addresseng":"No.10, GuiZhou Rd, Huangpu District, Shanghai","addresscn":"上海市黄浦区贵州路10号","open1":"","open2":"","open3":"","open4":"","description":"","phone":"021-6351 2916","website":"http://www.costa.com.cn","lat":31.2346837168,"lng":121.4768787651},{"id":2163346035,"wifi":"Free and Unlimited","latte":"97 rmb","brand":"Costa","name":"SH Ciros","addresseng":"1F, No.388, West NanJing Rd, Huangpu District, Shanghai","addresscn":"上海市黄浦区南京西路388号1楼","open1":"","open2":"","open3":"","open4":"","description":"","phone":"021-6334 6035","website":"http://www.costa.com.cn","lat":31.2310390062,"lng":121.468636512},{"id":2163129135,"wifi":"Free and Unlimited","latte":"96 rmb","brand":"Costa","name":"SH K11","addresseng":"B223-225, K11 Mall, No.300, Middle HuaiHai Rd, Luwan District, Shanghai","addresscn":"上海市黄浦区淮海中路300号K11商场B2层B223-B225","open1":"","open2":"","open3":"","open4":"","description":"","phone":"021-6312 9135","website":"http://www.costa.com.cn","lat":31.2229931923,"lng":121.4737766808},{"id":2162308227,"wifi":"Free and Unlimited","latte":"95 rmb","brand":"Costa","name":"SH HQ-SMG","addresseng":"1F, No.1376, HongQiao Rd, Changning District, Shanghai","addresscn":"上海市长宁区虹桥路1376号广播大厦大厅","open1":"","open2":"","open3":"","open4":"","description":"","phone":"021-6278 8177-3281","website":"http://www.costa.com.cn","lat":31.1968440469,"lng":121.4076718126},{"id":2162308226,"wifi":"Free and Unlimited","latte":"94 rmb","brand":"Costa","name":"SH SMG","addresseng":"No.651, West NanJing Rd, Jing'an District, Shanghai","addresscn":"上海市静安区南京西路651号（上海电视台内）","open1":"","open2":"","open3":"","open4":"","description":"","phone":"021-6256 5899-5777","website":"http://www.costa.com.cn","lat":31.2304629455,"lng":121.464983945},{"id":2162308225,"wifi":"Free and Unlimited","latte":"93 rmb","brand":"Costa","name":"SH Xiandai Building","addresseng":"Room A, 1F, No.258, ShiMen Er Rd, Jing'an District, Shanghai","addresscn":"上海市静安区石门二路258号底层A区","open1":"","open2":"","open3":"","open4":"","description":"","phone":"021-6230 8225","website":"http://www.costa.com.cn","lat":31.2350353642,"lng":121.4607978795},{"id":2162307821,"wifi":"Free and Unlimited","latte":"92 rmb","brand":"Costa","name":"SH Linkong","addresseng":"Room 102, 1F, No.6, Lane 280, Changning District, Shanghai","addresscn":"上海市长宁区临虹路280弄6号楼102室","open1":"","open2":"","open3":"","open4":"","description":"","phone":"021-6230 7821","website":"http://www.costa.com.cn","lat":31.230775521,"lng":121.3492227487},{"id":2162186193,"wifi":"Free and Unlimited","latte":"91 rmb","brand":"Costa","name":"SH Gubei Carrefour","addresseng":"1F, No. 268 South Shuicheng Rd. Changning district, Shanghai","addresscn":"上海市长宁区水城南路268号一楼","open1":"","open2":"","open3":"","open4":"","description":"","phone":"021-62186193","website":"http://www.costa.com.cn","lat":31.19641125,"lng":121.3936040349},{"id":2162145972,"wifi":"Free and Unlimited","latte":"90 rmb","brand":"Costa","name":"SH YUEXING","addresseng":"B1- B1053-1055, No 3300, North Zhongshan Rd, Putuo District, Shanghai","addresscn":"上海普陀区中山北路3300号月星环球港B1-B1053-1055","open1":"","open2":"","open3":"","open4":"","description":"","phone":"021-6214 5972","website":"http://www.costa.com.cn","lat":31.2312704323,"lng":121.4111835119},{"id":2162128618,"wifi":"Free and Unlimited","latte":"89 rmb","brand":"Costa","name":"SH Huaning Hongji CLD Store","addresseng":"No.300, 1F, XuanHua Rd,Changning District, Shanghai","addresscn":"上海市长宁区宣化路300号1楼","open1":"","open2":"","open3":"","open4":"","description":"","phone":"021-6212 8618","website":"http://www.costa.com.cn","lat":31.217431953,"lng":121.4223380278},{"id":2161736102,"wifi":"Free and Unlimited","latte":"88 rmb","brand":"Costa","name":"SH Cloud Nine","addresseng":"No.19, 1F, Area A, No.388, West JiangWan Rd, Hongkou District, Shanghai","addresscn":"上海市虹口区西江湾路388号（A）01层19号","open1":"","open2":"","open3":"","open4":"","description":"","phone":"021-6173 6102","website":"http://www.costa.com.cn","lat":31.2706048543,"lng":121.4786870655},{"id":2161590113,"wifi":"Free and Unlimited","latte":"87 rmb","brand":"Costa","name":"SH 96 Plaza","addresseng":"Room 153, No.796, DongFang Rd, Pudong New District, Shanghai","addresscn":"上海市浦东新区东方路796号153室","open1":"","open2":"","open3":"","open4":"","description":"","phone":"021-6159 0113","website":"http://www.costa.com.cn","lat":31.2272981185,"lng":121.5239325394},{"id":2161361404,"wifi":"Free and Unlimited","latte":"85 rmb","brand":"Costa","name":"SH crystal","addresseng":"No. 269, Wujiang Rd, Jing'an District, Shanghai.","addresscn":"上海静安区吴江路269号","open1":"","open2":"","open3":"","open4":"","description":"","phone":"021-6136 1403","website":"http://www.costa.com.cn","lat":31.2291775789,"lng":121.459364227},{"id":2161361403,"wifi":"Free and Unlimited","latte":"86 rmb","brand":"Costa","name":"SH Crystal","addresseng":"No.269, WuJiang Rd, Jingan District, Shanghai","addresscn":"上海静安区吴江路269号","open1":"","open2":"","open3":"","open4":"","description":"","phone":"021-6136 1403","website":"http://www.costa.com.cn","lat":31.2291775789,"lng":121.459364227},{"id":2160875383,"wifi":"Free and Unlimited","latte":"84 rmb","brand":"Costa","name":"SH DBS","addresseng":"No.B104, No.1318, LuJiaZui Ring Rd,Pudong New District, Shanghai","addresscn":"上海市浦东新区陆家嘴环路1318号B104号商铺","open1":"","open2":"","open3":"","open4":"","description":"","phone":"021-6087 5383","website":"http://www.costa.com.cn","lat":31.2415683927,"lng":121.5035806681},{"id":2160857631,"wifi":"Free and Unlimited","latte":"83 rmb","brand":"Costa","name":"SH Buynow","addresseng":"1Y01, No.339, North Caoxi Rd, Xuhui Distrct, Shangha","addresscn":"上海市徐汇区漕溪北路339号1F 1Y01","open1":"","open2":"","open3":"","open4":"","description":"","phone":"021-6085 7631","website":"http://www.costa.com.cn","lat":31.1911315291,"lng":121.4383519764},{"id":2160752058,"wifi":"Free and Unlimited","latte":"82 rmb","brand":"Costa","name":"SH SML","addresseng":"F1610-1613, No.618, XuJiaHui Rd, Xuhui Distrct, Shanghai","addresscn":"上海市徐汇区徐家汇路618号F1610-1613","open1":"","open2":"","open3":"","open4":"","description":"","phone":"021-6075 2058","website":"http://www.costa.com.cn","lat":31.205661281,"lng":121.468292835},{"id":2160456277,"wifi":"Free and Unlimited","latte":"81 rmb","brand":"Costa","name":"SH Fund Building","addresseng":"Unit A, No.101, ZhuLin Rd, Pudong New District, Shanghai","addresscn":"上海浦东新区竹林路101号大堂A单元","open1":"","open2":"","open3":"","open4":"","description":"","phone":"021-6045 6277","website":"http://www.costa.com.cn","lat":31.2238988598,"lng":121.5322627099},{"id":2158990226,"wifi":"Free and Unlimited","latte":"80 rmb","brand":"Costa","name":"SH Hongfeng","addresseng":"No.399, Hongfeng Rd, Pudong New District, Shanghai","addresscn":"上海市浦东新区红枫路399号","open1":"","open2":"","open3":"","open4":"","description":"","phone":"021-5899 0226","website":"http://www.costa.com.cn","lat":31.2412287674,"lng":121.5935321229},{"id":2158660083,"wifi":"Free and Unlimited","latte":"79 rmb","brand":"Costa","name":"SH Sam's club","addresseng":"Unit 110003, Wal-Mart, West Gaoke Rd, Pudong New District, Shanghai","addresscn":"上海市浦东新区高科西路2110号沃尔玛超市110003铺位","open1":"","open2":"","open3":"","open4":"","description":"","phone":"021-5866 0083","website":"http://www.costa.com.cn","lat":31.1867855273,"lng":121.5350460938},{"id":2158446297,"wifi":"Free and Unlimited","latte":"78 rmb","brand":"Costa","name":"SH Wujiefang","addresseng":"Unit 110, NO.2100, DongMing Rd, Pudong New Area, Shanghai","addresscn":"上海浦东新区东明路2100号","open1":"","open2":"","open3":"","open4":"","description":"","phone":"021-5844 6297","website":"http://www.costa.com.cn","lat":31.155278517,"lng":121.5167952477},{"id":2157830259,"wifi":"Free and Unlimited","latte":"77 rmb","brand":"Costa","name":"Shanghai Songjiang University Town","addresseng":"No.2800 1F-06. Wenxiang Road. Songjiang District, Shanghai","addresscn":"上海市松江区文翔路2800号1楼06号铺位","open1":"","open2":"","open3":"","open4":"","description":"","phone":"021-57830259","website":"http://www.costa.com.cn","lat":31.0483716816,"lng":121.1972795598},{"id":2156982819,"wifi":"Free and Unlimited","latte":"76 rmb","brand":"Costa","name":"SH Citic Plaza","addresseng":"Shop 102, No.863, CITIC Plaza, North SiChuan Rd, Hongkou Distric, Shanghai","addresscn":"上海市虹口区四川北路863号中信广场102商铺","open1":"","open2":"","open3":"","open4":"","description":"","phone":"021-5698 2819","website":"http://www.costa.com.cn","lat":31.247767807,"lng":121.4838142465},{"id":2156618967,"wifi":"Free and Unlimited","latte":"75 rmb","brand":"Costa","name":"SH Wanli carrefour","addresseng":"1F, NO.1500 Xincun Rd, Putuo District, Shanghai","addresscn":"上海普陀区新村路1500号1层","open1":"","open2":"","open3":"","open4":"","description":"","phone":"021-56618967","website":"http://www.costa.com.cn","lat":31.2682184605,"lng":121.4109866969},{"id":2155233015,"wifi":"Free and Unlimited","latte":"74 rmb","brand":"Costa","name":"SH Bailian Onecity","addresseng":"sm-2/sm-3, No.8, Songhu Rd, Yangpu District, Shanghai","addresscn":"上海市杨浦区淞沪路8号sm-2/sm-3","open1":"","open2":"","open3":"","open4":"","description":"","phone":"021-5523 3015","website":"http://www.costa.com.cn","lat":31.3015949127,"lng":121.5152516985},{"id":2154867152,"wifi":"Free and Unlimited","latte":"73 rmb","brand":"Costa","name":"SH Tesco Qibao","addresseng":"1F, No.3155, QiXin Rd(Tesco Qibao), Minhang District, Shanghai","addresscn":"上海市闵行区七莘路3155号1楼（七宝乐购1楼沿街）","open1":"","open2":"","open3":"","open4":"","description":"","phone":"021-5486 7152","website":"http://www.costa.com.cn","lat":31.1578432391,"lng":121.346507301},{"id":2154716359,"wifi":"Free and Unlimited","latte":"72 rmb","brand":"Costa","name":"SH Hongqiao HUB2","addresseng":"hqjc-9,hqhc-54,HongQiao Station, Shanghai Railway Station，Minhang District, Shanghai","addresscn":"上海市闵行区虹桥火车站出发层 hqjc-9,hqhc-54","open1":"","open2":"","open3":"","open4":"","description":"","phone":"021-5471 6359/9079","website":"http://www.costa.com.cn","lat":31.1936671977,"lng":121.3207944684},{"id":2154583763,"wifi":"Free and Unlimited","latte":"71 rmb","brand":"Costa","name":"SH Zizhu Park","addresseng":"Riverside high tech Zone Minhang District Zizhu Shanghai No. 8 1 floor B block","addresscn":"上海市闵行区紫竹高新区河畔8号1层B座","open1":"","open2":"","open3":"","open4":"","description":"","phone":"021-5458 3763","website":"http://www.costa.com.cn","lat":31.0218408334,"lng":121.4529962123},{"id":2154037951,"wifi":"Free and Unlimited","latte":"70 rmb","brand":"Costa","name":"SH Anfu","addresseng":"No.166, AnFu Rd, Xuhui District, Shanghai","addresscn":"上海市徐汇区安福路166号","open1":"","open2":"","open3":"","open4":"","description":"","phone":"021-5403 7951","website":"http://www.costa.com.cn","lat":31.2145416314,"lng":121.4444502446},{"id":2154030089,"wifi":"Free and Unlimited","latte":"69 rmb","brand":"Costa","name":"SH Station 85","addresseng":"No.93, ChangShu Rd, Jingan District, Shanghai","addresscn":"上海市静安区常熟路93号","open1":"","open2":"","open3":"","open4":"","description":"","phone":"021-5403 0089","website":"http://www.costa.com.cn","lat":31.2171844974,"lng":121.447994913},{"id":2153210007,"wifi":"Free and Unlimited","latte":"68 rmb","brand":"Costa","name":"SH Bund","addresseng":"No.387, East No.1 ZhongShan Rd, Huangpu District, Shanghai","addresscn":"上海市黄浦区中山东一路387号","open1":"","open2":"","open3":"","open4":"","description":"","phone":"021-5321 0007","website":"http://www.costa.com.cn","lat":31.2399944949,"lng":121.4906138556},{"id":2153088773,"wifi":"Free and Unlimited","latte":"67 rmb","brand":"Costa","name":"Shanghai YaJuLe","addresseng":"No.525, middle Xizang Rd, Huangpu District, Shanghai.","addresscn":"上海市黄浦区西藏中路525号125铺","open1":"","open2":"","open3":"","open4":"","description":"","phone":"021-5308 8773","website":"http://www.costa.com.cn","lat":31.2352988493,"lng":121.4730943221},{"id":2153078562,"wifi":"Free and Unlimited","latte":"66 rmb","brand":"Costa","name":"SH Bund Square","addresseng":"Room104-105, No.868, East LongHua Rd, Huangpu District, Shanghai","addresscn":"上海市黄浦区龙华东路868号104-105室","open1":"","open2":"","open3":"","open4":"","description":"","phone":"021-5307 8562","website":"http://www.costa.com.cn","lat":31.1925160783,"lng":121.4728885156},{"id":2152944019,"wifi":"Free and Unlimited","latte":"65 rmb","brand":"Costa","name":"SH Tesco GuangXin","addresseng":"No.1185, North ZhongShan Rd, Putuo District, Shanghai","addresscn":"上海市普陀区中山北路1185号","open1":"","open2":"","open3":"","open4":"","description":"","phone":"021-5294 4019","website":"http://www.costa.com.cn","lat":31.2581368984,"lng":121.4456681},{"id":2152919871,"wifi":"Free and Unlimited","latte":"64 rmb","brand":"Costa","name":"SH New World PT","addresseng":"Room L123, No.155, ChangShou Rd, Putuo District, Shanghai","addresscn":"上海市普陀区长寿路155号一层L123号","open1":"","open2":"","open3":"","open4":"","description":"","phone":"021-5291 9871","website":"http://www.costa.com.cn","lat":31.2427215158,"lng":121.4419725734},{"id":2152895880,"wifi":"Free and Unlimited","latte":"63 rmb","brand":"Costa","name":"SH Hongqiao SMG","addresseng":"1F,No.1376,Hongqiao Rd,Changning District,Shanghai","addresscn":"上海市长宁区虹桥路1376号广播大厦大厅","open1":"","open2":"","open3":"","open4":"","description":"","phone":"021-52895880","website":"http://www.costa.com.cn","lat":31.1968440469,"lng":121.4076718126},{"id":2152399185,"wifi":"Free and Unlimited","latte":"62 rmb","brand":"Costa","name":"SH CITIC Square","addresseng":"Room 501, No.1168, West Nanjing Rd, Jingan District, Shanghai","addresscn":"上海市静安区南京西路1168号501单元","open1":"","open2":"","open3":"","open4":"","description":"","phone":"021-5239 9185","website":"http://www.costa.com.cn","lat":31.2287087157,"lng":121.4559943943},{"id":2152382901,"wifi":"Free and Unlimited","latte":"61 rmb","brand":"Costa","name":"SH 9 Joy Plaza","addresseng":"No.9, ZhengNing Rd, Changning District, Shanghai","addresscn":"上海市长宁区镇宁路9号","open1":"","open2":"","open3":"","open4":"","description":"","phone":"021-5238 2901","website":"http://www.costa.com.cn","lat":31.2151717917,"lng":121.4386536928},{"id":2152381955,"wifi":"Free and Unlimited","latte":"60 rmb","brand":"Costa","name":"SH Changning New World Store","addresseng":"1F, No.823, ChangNing Rd, Changning District, Shanghai","addresscn":"上海市长宁区长宁路823号1楼","open1":"","open2":"","open3":"","open4":"","description":"","phone":"021-5238 1955","website":"http://www.costa.com.cn","lat":31.2188195078,"lng":121.4206685969},{"id":2152300972,"wifi":"Free and Unlimited","latte":"59 rmb","brand":"Costa","name":"SH Dingxi RD","addresseng":"No.1394, West Yan'an Rd, Changning District, Shanghai","addresscn":"上海长宁区延安西路1394号","open1":"","open2":"","open3":"","open4":"","description":"","phone":"021-52300972","website":"http://www.costa.com.cn","lat":31.2096416096,"lng":121.4240634062},{"id":2152288196,"wifi":"Free and Unlimited","latte":"58 rmb","brand":"Costa","name":"SH Studio Cinema","addresseng":"10F, Area B, No.1038, West NaJing Rd,Jingan District, Shanghai","addresscn":"上海市静安区南京西路1038号梅陇镇广场10楼B区","open1":"","open2":"","open3":"","open4":"","description":"","phone":"021-5228 8196","website":"http://www.costa.com.cn","lat":31.2287107194,"lng":121.4566827473},{"id":2151925153,"wifi":"Free and Unlimited","latte":"57 rmb","brand":"Costa","name":"SH New World Dept","addresseng":"Shop 07-08A, No.118, PuJian Rd, Pudong New District, Shanghai","addresscn":"上海浦东新区浦建路118号","open1":"","open2":"","open3":"","open4":"","description":"","phone":"021-5192 5153","website":"http://www.costa.com.cn","lat":31.2080827394,"lng":121.5206785978},{"id":2151511067,"wifi":"Free and Unlimited","latte":"56 rmb","brand":"Costa","name":"SH Hongqiao Hub","addresseng":"B1-35, HongQiao Station, Shanghai Railway Station, Shengui Rd, Minhang District, Shanghai","addresscn":"上海市闵行区申贵路虹桥火车站到达层B1-35（近北到达10号口）","open1":"","open2":"","open3":"","open4":"","description":"","phone":"021-5151 1067","website":"http://www.costa.com.cn","lat":31.1862084648,"lng":121.3277878953},{"id":2151355819,"wifi":"Free and Unlimited","latte":"55 rmb","brand":"Costa","name":"SH Zhangjiang Pudong Software Park No.2","addresseng":"Room 105-1 , No.14 Building , Guoshoujing Park Of Shanghai Pudong New Area Technology Park , No.498 Guoshoujing Rd , Zhangjiang High Technology Park , Shanghai","addresscn":"上海市张江高科技园区郭守敬路498号上海浦东软件园郭守敬园14幢105-1室","open1":"","open2":"","open3":"","open4":"","description":"","phone":"021-5135 5819","website":"http://www.costa.com.cn","lat":31.2068524743,"lng":121.5991328588},{"id":2150895761,"wifi":"Free and Unlimited","latte":"54 rmb","brand":"Costa","name":"SH Pudong Airport Free Trade Zone","addresseng":"1F, Area B, No.1333, WenJu Rd, Pudong New Area, Shanghai","addresscn":"上海浦东新区闻居路1333号B区楼一层","open1":"","open2":"","open3":"","open4":"","description":"","phone":"021-5089 5761","website":"http://www.costa.com.cn","lat":31.1342417845,"lng":121.7780207225},{"id":2150811182,"wifi":"Free and Unlimited","latte":"53 rmb","brand":"Costa","name":"SH XiangCheng","addresseng":"No.15,17, XiangCheng Rd, Pudong New District, Shanghai","addresscn":"上海市浦东新区向城路15,17号","open1":"","open2":"","open3":"","open4":"","description":"","phone":"021-5081 1182","website":"http://www.costa.com.cn","lat":31.223903869,"lng":121.528872896},{"id":2150770854,"wifi":"Free and Unlimited","latte":"52 rmb","brand":"Costa","name":"SH Zhangjiang Runhe","addresseng":"1F,Unit 5, No.1000 ZhangHeng Rd, Pudong New District, Shanghai","addresscn":"上海市浦东新区张衡路1000弄5号楼一楼","open1":"","open2":"","open3":"","open4":"","description":"","phone":"021-5077 0854","website":"http://www.costa.com.cn","lat":31.1894424191,"lng":121.6068486068},{"id":2150762907,"wifi":"Free and Unlimited","latte":"51 rmb","brand":"Costa","name":"SH East SMG","addresseng":"NO.2000, DongFang Rd, Pudong District, Shanghai","addresscn":"上海市浦东新区东方路2000号","open1":"","open2":"","open3":"","open4":"","description":"","phone":"021-5076 2907","website":"http://www.costa.com.cn","lat":31.1974962477,"lng":121.5200531856},{"id":2150762736,"wifi":"Free and Unlimited","latte":"50 rmb","brand":"Costa","name":"SH Zhong Rong Jasper Tower","addresseng":"Room 203, 2F, No.13 Building, NO.320, LvLin Rd, Pudong New District, Shanghai","addresscn":"上海市浦东新区绿林路320弄13号203室","open1":"","open2":"","open3":"","open4":"","description":"","phone":"021-5076 2736","website":"http://www.costa.com.cn","lat":31.1698703833,"lng":121.5482806547},{"id":2150272338,"wifi":"Free and Unlimited","latte":"49 rmb","brand":"Costa","name":"SH ZhangJiang","addresseng":"No.2, BoYun Rd, Pudong Zhangjiang Software Park, Shanghai","addresscn":"上海市张江高科技园区博云路2号","open1":"","open2":"","open3":"","open4":"","description":"","phone":"021-5027 2338","website":"http://www.costa.com.cn","lat":31.2018923417,"lng":121.6035616961},{"id":2150117436,"wifi":"Free and Unlimited","latte":"48 rmb","brand":"Costa","name":"SH IFC","addresseng":"Room LG1-37, NO.8 Central Avenue, the Financial Trade Zone of LuJiaZui, Pudong New District, Shanghai","addresscn":"上海市浦东新区陆家嘴金融贸易区世纪大道8号LG1-37室","open1":"","open2":"","open3":"","open4":"","description":"","phone":"021-5011 7436","website":"http://www.costa.com.cn","lat":31.2361844799,"lng":121.5013967208},{"id":2136336229,"wifi":"Free and Unlimited","latte":"47 rmb","brand":"Costa","name":"SH ICP","addresseng":"1F, International Capital Plaza, No.1318 North SiChuan Rd, Hongkou District, Shanghai","addresscn":"上海市虹口区四川北路1318号盛邦国际大厦1层","open1":"","open2":"","open3":"","open4":"","description":"","phone":"021-3633 6229","website":"http://www.costa.com.cn","lat":31.2510508517,"lng":121.4846934202},{"id":2134978366,"wifi":"Free and Unlimited","latte":"46 rmb","brand":"Costa","name":"SH Jiefang Building","addresseng":"No.2, 1F, No.4855, DuShi Rd, Minhang District, Shanghai","addresscn":"上海市闵行区都市路4855号1楼02单元（解放日报大厦1座）","open1":"","open2":"","open3":"","open4":"","description":"","phone":"021-3497 8366","website":"http://www.costa.com.cn","lat":31.1036785118,"lng":121.390198236},{"id":2134757177,"wifi":"Free and Unlimited","latte":"45 rmb","brand":"Costa","name":"SH Bank Plaza","addresseng":"1F West Lobby , No.168 Middle Yincheng Rd , Pudong New Area , Shanghai","addresscn":"上海市浦东新区银城中路168号一楼大堂西区部分","open1":"","open2":"","open3":"","open4":"","description":"","phone":"021-3475 7177","website":"http://www.costa.com.cn","lat":31.2391779916,"lng":121.5049573741},{"id":2134691978,"wifi":"Free and Unlimited","latte":"44 rmb","brand":"Costa","name":"SH Tianlin Walmart","addresseng":"No.402, GuiLin Rd, Xuhui District, Shanghai","addresscn":"上海市徐汇区桂林路402号（沃尔玛1楼沿街）","open1":"","open2":"","open3":"","open4":"","description":"","phone":"021-3469 1978","website":"http://www.costa.com.cn","lat":31.1704684846,"lng":121.4170210253},{"id":2134532153,"wifi":"Free and Unlimited","latte":"43 rmb","brand":"Costa","name":"SH South Bailian","addresseng":"No.7388, HuMin Rd, Minhang District, Shanghai","addresscn":"上海市闵行区沪闵路7388号（近万源路）","open1":"","open2":"","open3":"","open4":"","description":"","phone":"021-3453 2153","website":"http://www.costa.com.cn","lat":31.1309547324,"lng":121.4010500364},{"id":2133660057,"wifi":"Free and Unlimited","latte":"42 rmb","brand":"Costa","name":"SH XinTianDi","addresseng":"Unit L117—L243(A、B、C), No.245, MaDang Rd, Luwan District, Shanghai","addresscn":"上海市黄浦区马当路245号单元L117（A屋）、L220（B屋）、L243（C屋）","open1":"","open2":"","open3":"","open4":"","description":"","phone":"021-3366 0057","website":"http://www.costa.com.cn","lat":31.2195458451,"lng":121.4743881061},{"id":2133161051,"wifi":"Free and Unlimited","latte":"41 rmb","brand":"Costa","name":"SH U Way","addresseng":"No.203, XuJiaHui Rd, Luwan District, Shanghai","addresscn":"上海市黄浦区徐家汇路203号","open1":"","open2":"","open3":"","open4":"","description":"","phone":"021-3316 1051","website":"http://www.costa.com.cn","lat":31.20855561,"lng":121.4769896609},{"id":2132527900,"wifi":"Free and Unlimited","latte":"40 rmb","brand":"Costa","name":"SH 889 Plaza","addresseng":"L1-29, Yueda Plaza, NO.889, WanHangDu Rd, Jingan District, Shanghai","addresscn":"上海市静安区万航渡路889号悦达889广场一层L1-29","open1":"","open2":"","open3":"","open4":"","description":"","phone":"021-3252 7900","website":"http://www.costa.com.cn","lat":31.2295262208,"lng":121.4285252125},{"id":2132521867,"wifi":"Free and Unlimited","latte":"39 rmb","brand":"Costa","name":"SH JSWB（HQ）","addresseng":"No.75, LouShanGuan Rd, Changning District, Shanghai","addresscn":"上海市长宁区娄山关路75号吉盛伟邦虹桥国际家具博览中心一楼110场地","open1":"","open2":"","open3":"","open4":"","description":"","phone":"021-3252 1867","website":"http://www.costa.com.cn","lat":31.2036175181,"lng":121.4027774128},{"id":2132520392,"wifi":"Free and Unlimited","latte":"38 rmb","brand":"Costa","name":"SH Imago","addresseng":"No.99, WuNing Rd, Putuo District, Shanghai","addresscn":"上海普陀区武宁路99号","open1":"","open2":"","open3":"","open4":"","description":"","phone":"021-3252 0392","website":"http://www.costa.com.cn","lat":31.2377233132,"lng":121.4232461743},{"id":2131078733,"wifi":"Free and Unlimited","latte":"35 rmb","brand":"Costa","name":"Shanghai Yao Hua","addresseng":"B1 5G03-1-013 room, No. 1368, World Expo Road, Pudong New district, Shanghai.","addresscn":"上海浦东新区世博大道1368号B1层5G03-1-013室","open1":"","open2":"","open3":"","open4":"","description":"","phone":"021-3107 8731","website":"http://www.costa.com.cn","lat":31.1862465349,"lng":121.4919066405},{"id":2131078732,"wifi":"Free and Unlimited","latte":"37 rmb","brand":"Costa","name":"Shanghai Bailian Expo","addresseng":"3B32, 33 berth, No. 1368, World Expo Road, Pudong New district, Shanghai.","addresscn":"上海浦东新区世博大道1368号3B32、33铺位","open1":"","open2":"","open3":"","open4":"","description":"","phone":"021-3107 8732","website":"http://www.costa.com.cn","lat":31.1862465349,"lng":121.4919066405},{"id":2131078731,"wifi":"Free and Unlimited","latte":"36 rmb","brand":"Costa","name":"Shanghai Yao Hua","addresseng":"B1 5G03-1-013, Room No.1368, World Expo Road, Pudong New District, Shanghai","addresscn":"上海浦东新区世博大道1368号B1层5G03-1-013室","open1":"","open2":"","open3":"","open4":"","description":"","phone":"021-31078731","website":"http://www.costa.com.cn","lat":31.1862465349,"lng":121.4919066405},{"id":2124285101,"wifi":"Free and Unlimited","latte":"34 rmb","brand":"Costa","name":"SH Xingmei","addresseng":"No.1234, XingMei Rd, Minhang District, Shanghai","addresscn":"上海市闵行区兴梅路1234号（近莲花南路春申景城1期商铺）","open1":"","open2":"","open3":"","open4":"","description":"","phone":"021-2428 5101","website":"http://www.costa.com.cn","lat":31.105282465,"lng":121.4114013072},{"id":2122382570,"wifi":"Free and Unlimited","latte":"33 rmb","brand":"Costa","name":"Shanghai Hongqiao Airport 3","addresseng":"T2 airport terminalA3-M2-S26, Hongqiao Airport, ShenDaYi Rd, Changning District, Shanghai","addresscn":"申达一路1号虹桥机场T2航站楼出发A3-M2-S26","open1":"","open2":"","open3":"","open4":"","description":"","phone":"021-2238 2570","website":"http://www.costa.com.cn","lat":31.2016579101,"lng":121.3273233319},{"id":2122382406,"wifi":"Free and Unlimited","latte":"32 rmb","brand":"Costa","name":"SH Hongqiao Airport 2","addresseng":"No.1, No.1 ShenDa Rd, Changning District, Shanghai","addresscn":"上海市长宁区申达一路1号","open1":"","open2":"","open3":"","open4":"","description":"","phone":"021-2238 2406","website":"http://www.costa.com.cn","lat":31.2016579101,"lng":121.3273233319},{"id":2120233063,"wifi":"Free and Unlimited","latte":"31 rmb","brand":"Costa","name":"SH Life Hub","addresseng":"Room 105, 1F, No.7, Lane 3611, ZhangYang Rd, Pudong District, Shanghai","addresscn":"上海市浦东新区张扬路3611弄7号1层105","open1":"","open2":"","open3":"","open4":"","description":"","phone":"021-2023 3063","website":"http://www.costa.com.cn","lat":31.2278431219,"lng":121.5198713565},{"id":64473808,"wifi":"Yes","latte":"Unknown","brand":"Wagas","name":"Grand Gateway 港汇广场","addresseng":"Unit 151, No.1 Hongqiao Lu","addresscn":"上海市徐汇区虹桥路1号港汇恒隆广场151室","open1":"","open2":"","open3":"","open4":"","description":"Wagas offers both coffees and snacks like salad, panini and pasta. A good place to go if you miss simple western food.","phone":"6447 3808","website":"http://www.wagas.com.cn/","lat":31.1950978318,"lng":121.4377665266},{"id":63353739,"wifi":"Yes","latte":"Unknown","brand":"Wagas","name":"Central Plaza 中环广场","addresseng":"Room 116, No.381 Middle Huaihai Lu","addresscn":"上海市卢湾区淮海中路381号116室","open1":"","open2":"","open3":"","open4":"","description":"Wagas offers both coffees and snacks like salad, panini and pasta. A good place to go if you miss simple western food.","phone":"6335 3739","website":"http://www.wagas.com.cn/","lat":31.2221466337,"lng":121.4727036893},{"id":62755250,"wifi":"Yes","latte":"Unknown","brand":"Wagas","name":"Gubei Carrefour 古北家乐福","addresseng":"No.268 South Shuicheng Lu","addresscn":"上海市长宁区水城南路268号","open1":"","open2":"","open3":"","open4":"","description":"Wagas offers both coffees and snacks like salad, panini and pasta. A good place to go if you miss simple western food.","phone":"6275 5250","website":"http://www.wagas.com.cn/","lat":31.1961918461,"lng":121.3936340067},{"id":62720353,"wifi":"Yes","latte":"Unknown","brand":"Wagas","name":"Jiaozhou Lu 胶州路","addresseng":"1F, No.265 Jiaozhou Lu","addresscn":"上海市静安区胶州路265号1楼","open1":"","open2":"","open3":"","open4":"","description":"Wagas offers both coffees and snacks like salad, panini and pasta. A good place to go if you miss simple western food.","phone":"6272 0353","website":"http://www.wagas.com.cn/","lat":31.2284031531,"lng":121.4430265827},{"id":62670339,"wifi":"Yes","latte":"Unknown","brand":"Wagas","name":"In Point 四季坊","addresseng":"Room 116, No.169 Wujiang Lu","addresscn":"上海市静安区吴江路169号116室","open1":"","open2":"","open3":"","open4":"","description":"Wagas offers both coffees and snacks like salad, panini and pasta. A good place to go if you miss simple western food.","phone":"6267 0339","website":"http://www.wagas.com.cn/","lat":31.22938997,"lng":121.4598757462},{"id":62521509,"wifi":"Yes","latte":"Unknown","brand":"Wagas","name":"Jing’an Kerry Centre 静安嘉里中心","addresseng":"N1-22, No.1515 West Nanjing Lu","addresscn":"上海市静安区南京西路1515号 N1-22","open1":"","open2":"","open3":"","open4":"","description":"Wagas offers both coffees and snacks like salad, panini and pasta. A good place to go if you miss simple western food.","phone":"6252 1509","website":"http://www.wagas.com.cn/","lat":31.225206267,"lng":121.4500869467},{"id":62329778,"wifi":"Yes","latte":"Unknown","brand":"Wagas","name":"Yueda 889 悦达889广场","addresseng":"L1-05, No.889 Wanhangdu Lu","addresscn":"上海市静安区万航渡路889号一层5室","open1":"","open2":"","open3":"","open4":"","description":"Wagas offers both coffees and snacks like salad, panini and pasta. A good place to go if you miss simple western food.","phone":"6232 9778","website":"http://www.wagas.com.cn/","lat":31.2289491584,"lng":121.4290147524},{"id":62090057,"wifi":"Yes","latte":"Unknown","brand":"Wagas","name":"Starry Sky Square 星空广场","addresseng":"B104, 1F, No.1665 Hongqiao Lu","addresscn":"上海市长宁区虹桥路1665号星空广场1楼B104","open1":"","open2":"","open3":"","open4":"","description":"Wagas offers both coffees and snacks like salad, panini and pasta. A good place to go if you miss simple western food.","phone":"6209 0057 ","website":"http://www.wagas.com.cn/","lat":31.2004957704,"lng":121.3924031636},{"id":60671630,"wifi":"Yes","latte":"Unknown","brand":"Wagas","name":"Greenland 正大乐城","addresseng":"2-104-1, No.699 Zhongshan Nan Lu","addresscn":"上海市徐汇区中山南二路699号2-104-1","open1":"","open2":"","open3":"","open4":"","description":"Wagas offers both coffees and snacks like salad, panini and pasta. A good place to go if you miss simple western food.","phone":"6067 1630","website":"http://www.wagas.com.cn/","lat":31.1866983668,"lng":121.4569025407},{"id":60259360,"wifi":"Yes","latte":"Unknown","brand":"Wagas","name":"Baoland Plaza 宝地广场","addresseng":"D109, No.555 Kunming Lu","addresscn":"上海市杨浦区昆明路555号宝地广场D栋一层109单元","open1":"","open2":"","open3":"","open4":"","description":"Wagas offers both coffees and snacks like salad, panini and pasta. A good place to go if you miss simple western food.","phone":"6025 9360","website":"http://www.wagas.com.cn/","lat":31.2612346019,"lng":121.5111825231},{"id":54668312,"wifi":"Yes","latte":"Unknown","brand":"Wagas","name":"Loft 尚街","addresseng":"Room 104, No.283 West Jianguo Lu","addresscn":"上海市徐汇区建国西路283号104室","open1":"","open2":"","open3":"","open4":"","description":"Wagas offers both coffees and snacks like salad, panini and pasta. A good place to go if you miss simple western food.","phone":"5466 8312","website":"http://www.wagas.com.cn/","lat":31.2053306723,"lng":121.4591214552},{"id":54661488,"wifi":"Yes","latte":"Unknown","brand":"Wagas","name":"Donghu Hotel 东湖宾馆","addresseng":"No.7 Donghu Lu","addresscn":"上海市徐汇区东湖路7号","open1":"","open2":"","open3":"","open4":"","description":"Wagas offers both coffees and snacks like salad, panini and pasta. A good place to go if you miss simple western food.","phone":"5466 1488","website":"http://www.wagas.com.cn/","lat":31.216226734,"lng":121.4542070742},{"id":53752758,"wifi":"Yes","latte":"Unknown","brand":"Wagas","name":"Central Plaza 中区广场","addresseng":"Unit 101, No.227 North Huangpi Lu","addresscn":"上海市黄浦区黄陂北路227号中区广场1楼101室","open1":"","open2":"","open3":"","open4":"","description":"Wagas offers both coffees and snacks like salad, panini and pasta. A good place to go if you miss simple western food.","phone":"5375 2758","website":"http://www.wagas.com.cn/","lat":31.2291655568,"lng":121.4705257363},{"id":52925228,"wifi":"Yes","latte":"Unknown","brand":"Wagas","name":"Citic Square 中信泰富","addresseng":"LG11A, No.1168 West Nanjing Lu","addresscn":"上海市静安区南京西路1168号地下一层11A室","open1":"","open2":"","open3":"","open4":"","description":"Wagas offers both coffees and snacks like salad, panini and pasta. A good place to go if you miss simple western food.","phone":"5292 5228","website":"http://www.wagas.com.cn/","lat":31.2287087157,"lng":121.4559943943},{"id":52737860,"wifi":"Yes","latte":"Unknown","brand":"Wagas","name":"Zhongshan Park Cloudnine 中山公园龙之梦","addresseng":"Room 1051, No.1018 Changning Lu","addresscn":"上海市长宁区长宁路1018号1层1051,1053室","open1":"","open2":"","open3":"","open4":"","description":"Wagas offers both coffees and snacks like salad, panini and pasta. A good place to go if you miss simple western food.","phone":"5273 7860","website":"http://www.wagas.com.cn/","lat":31.2185940928,"lng":121.4169371042},{"id":52395367,"wifi":"Yes","latte":"Unknown","brand":"Wagas","name":"Panyu Lu 番禺路","addresseng":"No.483 Panyu Lu","addresscn":"上海市长宁区番禺路483号","open1":"","open2":"","open3":"","open4":"","description":"Wagas offers both coffees and snacks like salad, panini and pasta. A good place to go if you miss simple western food.","phone":"5239 5367","website":"http://www.wagas.com.cn/","lat":31.2029322564,"lng":121.4304024481},{"id":52081978,"wifi":"Yes","latte":"Unknown","brand":"Wagas","name":"Hongqiao Maxdo Building 虹桥万都中心","addresseng":"Unit 108, No.86 Xianxia Lu","addresscn":"上海市长宁区仙霞路86号108室","open1":"","open2":"","open3":"","open4":"","description":"Wagas offers both coffees and snacks like salad, panini and pasta. A good place to go if you miss simple western food.","phone":"5208 1978","website":"http://www.wagas.com.cn/","lat":31.2049429585,"lng":121.4051341977},{"id":36538871,"wifi":"Yes","latte":"Unknown","brand":"Wagas","name":"JOY City 大悦城","addresseng":"L101-01B, No.166 North Xizang Lu","addresscn":"上海市闸北区西藏北路166号上海大悦城101-01B","open1":"","open2":"","open3":"","open4":"","description":"Wagas offers both coffees and snacks like salad, panini and pasta. A good place to go if you miss simple western food.","phone":"3653 8871","website":"http://www.wagas.com.cn/","lat":31.2426924623,"lng":121.4724379391},{"id":35365689,"wifi":"Yes","latte":"Unknown","brand":"Wagas","name":"University Avenue 大学路","addresseng":"No.67 University Avenue","addresscn":"上海市杨浦区大学路67号","open1":"","open2":"","open3":"","open4":"","description":"Wagas offers both coffees and snacks like salad, panini and pasta. A good place to go if you miss simple western food.","phone":"3536 5689","website":"http://www.wagas.com.cn/","lat":31.3042518046,"lng":121.511279432},{"id":33762207,"wifi":"Yes","latte":"Unknown","brand":"Wagas","name":"Lifestyle Centre 无限度广场","addresseng":"L108, No.138 Middle Huaihai Lu","addresscn":"上海市黄埔区淮海中路138号一层108单元","open1":"","open2":"","open3":"","open4":"","description":"Wagas offers both coffees and snacks like salad, panini and pasta. A good place to go if you miss simple western food.","phone":"3376 2207","website":"http://www.wagas.com.cn/","lat":31.2245320256,"lng":121.4777489473},{"id":33665026,"wifi":"Yes","latte":"Unknown","brand":"Wagas","name":"Hongyi Plaza 宏伊国际广场","addresseng":"G116, No.288 Jiujiang Lu","addresscn":"上海市黄浦区九江路288号一层116室","open1":"","open2":"","open3":"","open4":"","description":"Wagas offers both coffees and snacks like salad, panini and pasta. A good place to go if you miss simple western food.","phone":"3366 5026","website":"http://www.wagas.com.cn/","lat":31.2364960536,"lng":121.4847034108},{"id":33315286,"wifi":"Yes","latte":"Unknown","brand":"Wagas","name":"Greentech Tower 环智国际大厦","addresseng":"No.410-416 Hengfeng Lu","addresscn":"上海市闸北区恒丰路410-416号","open1":"","open2":"","open3":"","open4":"","description":"Wagas offers both coffees and snacks like salad, panini and pasta. A good place to go if you miss simple western food.","phone":"3331 5286","website":"http://www.wagas.com.cn/","lat":31.2442393104,"lng":121.4546116939},{"id":32098930,"wifi":"Yes","latte":"Unknown","brand":"Wagas","name":"Bingu 缤谷广场","addresseng":"Room 105, No.341 Tianshan Lu","addresscn":"上海市长宁区天山路341号105室","open1":"","open2":"","open3":"","open4":"","description":"Wagas offers both coffees and snacks like salad, panini and pasta. A good place to go if you miss simple western food.","phone":"3209 8930","website":"http://www.wagas.com.cn/","lat":31.2141218585,"lng":121.3865846324},{"id":31315008,"wifi":"Yes","latte":"Unknown","brand":"Wagas","name":"Printemps 普陀巴黎春天","addresseng":"L120, No.155 Changshou Lu","addresscn":"上海市普陀区长寿路155号L102室","open1":"","open2":"","open3":"","open4":"","description":"Wagas offers both coffees and snacks like salad, panini and pasta. A good place to go if you miss simple western food.","phone":"3131 5008","website":"http://www.wagas.com.cn/","lat":31.2427215158,"lng":121.4419725734},{"id":22309702,"wifi":"Yes","latte":"Unknown","brand":"Wagas","name":"Wagas Express Réel 芮欧百货","addresseng":"B2-209, No.1601 West Nanjing Lu","addresscn":"上海市静安区南京西路1601号地下二层209室","open1":"","open2":"","open3":"","open4":"","description":"Wagas offers both coffees and snacks like salad, panini and pasta. A good place to go if you miss simple western food.","phone":"2230 9702","website":"http://www.wagas.com.cn/","lat":31.223259683,"lng":121.4476172679},{"id":1012055,"wifi":"Free WiFi","latte":"30 rmb","brand":"starbucks","name":"Siping Rd","addresseng":"Rm113,116,No.188,Siping RdHongkou","addresscn":"上海市虹口区四平路188号113室","open1":"Monday to Sunday：07:00-22:00","open2":"","open3":"","open4":"","description":"Most popular american coffee shop brand, Starbucks counts more than 300 shops in Shanghai. Be carefull if you want a coffee during the weekend, stabucks shops used to be crowded :)","phone":"","website":"http://www.starbucks.com.cn/","lat":31.2621743321,"lng":121.4903710837},{"id":1011565,"wifi":"Free WiFi","latte":"30 rmb","brand":"starbucks","name":"Xia Bi Road Store","addresseng":"Xia Bi Road, Pudong DistrictNo.261","addresscn":"上海市浦东新区3777F01042单元夏碧路261号1楼","open1":"Monday to Sunday：07:00-22:00","open2":"","open3":"","open4":"","description":"Most popular american coffee shop brand, Starbucks counts more than 300 shops in Shanghai. Be carefull if you want a coffee during the weekend, stabucks shops used to be crowded :)","phone":"","website":"http://www.starbucks.com.cn/","lat":31.3378707032,"lng":121.5871251448},{"id":1011557,"wifi":"Free WiFi","latte":"30 rmb","brand":"starbucks","name":"Da Hua Three Road","addresseng":"Bao Shan District, Da Hua San RdNo.81","addresscn":"上海市宝山区大华三路81号","open1":"Monday to Sunday：07:00-22:00","open2":"","open3":"","open4":"","description":"Most popular american coffee shop brand, Starbucks counts more than 300 shops in Shanghai. Be carefull if you want a coffee during the weekend, stabucks shops used to be crowded :)","phone":"","website":"http://www.starbucks.com.cn/","lat":31.2758384904,"lng":121.4190051604},{"id":1011556,"wifi":"Free WiFi","latte":"30 rmb","brand":"starbucks","name":"E-mart","addresseng":"NO.2211 West Changjiang RoadBaoshan District","addresscn":"上海市宝山区纪蕴路38号A-68单元","open1":"Monday to Sunday：07:00-22:00","open2":"","open3":"","open4":"","description":"Most popular american coffee shop brand, Starbucks counts more than 300 shops in Shanghai. Be carefull if you want a coffee during the weekend, stabucks shops used to be crowded :)","phone":"","website":"http://www.starbucks.com.cn/","lat":31.3342009465,"lng":121.4390323369},{"id":1011522,"wifi":"Free WiFi","latte":"30 rmb","brand":"starbucks","name":"JinShan Industrial Park","addresseng":"Lane 818 NO 79 XiaNing RoadJin Shan district","addresscn":"上海市金山区夏宁路818弄70号1层","open1":"Monday to Friday：07:00-19:00","open2":"Saturday to Sunday：08:00-18:00","open3":"","open4":"","description":"Most popular american coffee shop brand, Starbucks counts more than 300 shops in Shanghai. Be carefull if you want a coffee during the weekend, stabucks shops used to be crowded :)","phone":"","website":"http://www.starbucks.com.cn/","lat":30.8259371382,"lng":121.3183118019},{"id":1011496,"wifi":"Free WiFi","latte":"30 rmb","brand":"starbucks","name":"Xinzha Road Store","addresseng":"No.1250,xinzha Rdjingan","addresscn":"上海市静安区源创创意园新闸路1250号10号楼一层5室-10室","open1":"Monday to Sunday：07:00-22:00","open2":"","open3":"","open4":"","description":"Most popular american coffee shop brand, Starbucks counts more than 300 shops in Shanghai. Be carefull if you want a coffee during the weekend, stabucks shops used to be crowded :)","phone":"","website":"http://www.starbucks.com.cn/","lat":31.2326609925,"lng":121.4522858799},{"id":1011481,"wifi":"Free WiFi","latte":"30 rmb","brand":"starbucks","name":"SHA Hong Qiao Airport T1-Departure","addresseng":"No.1 Shenda Yi RdChangning District","addresscn":"上海市长宁区虹桥机场一号航站楼迎宾一路800号T1航站楼出发公众区B2-20店铺","open1":"Monday to Sunday：05:30-21:30","open2":"","open3":"","open4":"","description":"Most popular american coffee shop brand, Starbucks counts more than 300 shops in Shanghai. Be carefull if you want a coffee during the weekend, stabucks shops used to be crowded :)","phone":"","website":"http://www.starbucks.com.cn/","lat":31.1938906091,"lng":121.3469079244},{"id":1011363,"wifi":"Free WiFi","latte":"30 rmb","brand":"starbucks","name":"HK New World Dept - Changshou Rd","addresseng":"NO115 Unit 110 Changshou RoadPu Tuo District","addresscn":"上海市普陀区长寿路巴黎春天长寿路175号，179号L110单元","open1":"Monday to Sunday：07:00-22:00","open2":"","open3":"","open4":"","description":"Most popular american coffee shop brand, Starbucks counts more than 300 shops in Shanghai. Be carefull if you want a coffee during the weekend, stabucks shops used to be crowded :)","phone":"","website":"http://www.starbucks.com.cn/","lat":31.2428156892,"lng":121.4407846899},{"id":1011353,"wifi":"Free WiFi","latte":"30 rmb","brand":"starbucks","name":"INJOY PLAZA","addresseng":"1F-101 Lane.135 North CaoSui Road","addresscn":"上海市青浦区吾悦广场淀山湖大道152弄41号-7室","open1":"Monday to Sunday：07:00-22:00","open2":"","open3":"","open4":"","description":"Most popular american coffee shop brand, Starbucks counts more than 300 shops in Shanghai. Be carefull if you want a coffee during the weekend, stabucks shops used to be crowded :)","phone":"","website":"http://www.starbucks.com.cn/","lat":31.1412266449,"lng":121.0965921956},{"id":1011347,"wifi":"Free WiFi","latte":"30 rmb","brand":"starbucks","name":"Ruihong Tiandi","addresseng":"No.328 Tianhong RdHongkou District","addresscn":"上海市虹口区瑞虹天地天虹路320号、天宝路280弄1号","open1":"Monday to Thursday：07:00-22:00","open2":"Friday to Saturday：07:00-23:00","open3":"Sunday：07:00-22:00","open4":"","description":"Most popular american coffee shop brand, Starbucks counts more than 300 shops in Shanghai. Be carefull if you want a coffee during the weekend, stabucks shops used to be crowded :)","phone":"","website":"http://www.starbucks.com.cn/","lat":31.264495606,"lng":121.497698197},{"id":1011325,"wifi":"Free WiFi","latte":"30 rmb","brand":"starbucks","name":"Wentong plaza","addresseng":"NO.739 Kun Ming RoadYangPu District","addresscn":"上海市杨浦区文通大厦昆明路739号一楼101单元","open1":"Monday to Friday：07:00-20:00","open2":"Saturday to Sunday：08:00-20:00","open3":"","open4":"","description":"Most popular american coffee shop brand, Starbucks counts more than 300 shops in Shanghai. Be carefull if you want a coffee during the weekend, stabucks shops used to be crowded :)","phone":"","website":"http://www.starbucks.com.cn/","lat":31.2631391084,"lng":121.516013982},{"id":1011315,"wifi":"Free WiFi","latte":"30 rmb","brand":"starbucks","name":"Hongkou plaza store 2","addresseng":"shanghaiNO388 West JiangWan Rd.officeHongkou district","addresscn":"上海市虹口区虹口龙之梦西江湾路388号(A)01层56号","open1":"Monday to Friday：07:00-20:00","open2":"Saturday to Sunday：09:00-17:00","open3":"","open4":"","description":"Most popular american coffee shop brand, Starbucks counts more than 300 shops in Shanghai. Be carefull if you want a coffee during the weekend, stabucks shops used to be crowded :)","phone":"","website":"http://www.starbucks.com.cn/","lat":31.2706048543,"lng":121.4786870655},{"id":1011296,"wifi":"Free WiFi","latte":"30 rmb","brand":"starbucks","name":"Zhongyuan City Plaza","addresseng":"NO.777 Guo He RoadYangpu district","addresscn":"上海市杨浦区中原城市广场国和路701号5105室","open1":"Monday to Sunday：07:00-22:00","open2":"","open3":"","open4":"","description":"Most popular american coffee shop brand, Starbucks counts more than 300 shops in Shanghai. Be carefull if you want a coffee during the weekend, stabucks shops used to be crowded :)","phone":"","website":"http://www.starbucks.com.cn/","lat":31.3153482351,"lng":121.5218994503},{"id":1011209,"wifi":"Free WiFi","latte":"30 rmb","brand":"starbucks","name":"China Merchants Plaza Store","addresseng":"NO.333 N.ChengDuJingan","addresscn":"上海市静安区招商局广场成都北路333号104A室","open1":"Monday to Sunday：07:00-22:00","open2":"","open3":"","open4":"","description":"Most popular american coffee shop brand, Starbucks counts more than 300 shops in Shanghai. Be carefull if you want a coffee during the weekend, stabucks shops used to be crowded :)","phone":"","website":"http://www.starbucks.com.cn/","lat":31.2280114318,"lng":121.4668202191},{"id":1011203,"wifi":"Free WiFi","latte":"30 rmb","brand":"starbucks","name":"Lingang Howard Johnson Plaza store","addresseng":"Shang HaiSouth Xin Yuan Rd Pudong1F","addresscn":"上海市浦东新区临港豪生酒店(浦东)新元南路555弄1-60号","open1":"Monday to Friday：07:00-18:00","open2":"Saturday to Sunday：09:00-18:00","open3":"","open4":"","description":"Most popular american coffee shop brand, Starbucks counts more than 300 shops in Shanghai. Be carefull if you want a coffee during the weekend, stabucks shops used to be crowded :)","phone":"","website":"http://www.starbucks.com.cn/","lat":30.8715360944,"lng":121.819327898},{"id":1011188,"wifi":"Free WiFi","latte":"30 rmb","brand":"starbucks","name":"Florence Town","addresseng":"No.66-68 Zhu Pan RdPudong District","addresscn":"上海市浦东新区64/1丘、2丘2楼H26单元机场镇103街坊","open1":"Monday to Friday：10:00-21:00","open2":"Saturday to Sunday：09:00-21:00","open3":"","open4":"","description":"Most popular american coffee shop brand, Starbucks counts more than 300 shops in Shanghai. Be carefull if you want a coffee during the weekend, stabucks shops used to be crowded :)","phone":"","website":"http://www.starbucks.com.cn/","lat":31.1794720618,"lng":121.7448299185},{"id":1011184,"wifi":"Free WiFi","latte":"30 rmb","brand":"starbucks","name":"HK New World Department - Tianshan","addresseng":"No.762 Tianshan RdChangning District","addresscn":"上海市长宁区巴黎春天天山路店天山路762号1层15号商铺","open1":"Monday to Sunday：07:00-22:00","open2":"","open3":"","open4":"","description":"Most popular american coffee shop brand, Starbucks counts more than 300 shops in Shanghai. Be carefull if you want a coffee during the weekend, stabucks shops used to be crowded :)","phone":"","website":"http://www.starbucks.com.cn/","lat":31.2112806273,"lng":121.4031910241},{"id":1011168,"wifi":"Free WiFi","latte":"30 rmb","brand":"starbucks","name":"ZhongJi Building","addresseng":"No.819 Yinxiang RdJiading District","addresscn":"上海市嘉定区中暨大厦银翔路819弄1号04单元","open1":"Monday to Sunday：07:00-22:00","open2":"","open3":"","open4":"","description":"Most popular american coffee shop brand, Starbucks counts more than 300 shops in Shanghai. Be carefull if you want a coffee during the weekend, stabucks shops used to be crowded :)","phone":"","website":"http://www.starbucks.com.cn/","lat":31.2881681916,"lng":121.3193728046},{"id":1011167,"wifi":"Free WiFi","latte":"30 rmb","brand":"starbucks","name":"YiJia Plaza","addresseng":"Unit3-101, No.230 Chenghe RdJinshan District","addresscn":"上海市金山区易家中心城河路230号3-101单元","open1":"Monday to Sunday：07:00-22:00","open2":"","open3":"","open4":"","description":"Most popular american coffee shop brand, Starbucks counts more than 300 shops in Shanghai. Be carefull if you want a coffee during the weekend, stabucks shops used to be crowded :)","phone":"","website":"http://www.starbucks.com.cn/","lat":30.7301056947,"lng":121.3287899535},{"id":1011139,"wifi":"Free WiFi","latte":"30 rmb","brand":"starbucks","name":"Feng Lin International Building","addresseng":"No.380 Feng Lin RoadXuhui District","addresscn":"上海市徐汇区枫林路380号102室","open1":"Monday to Sunday：07:00-21:00","open2":"","open3":"","open4":"","description":"Most popular american coffee shop brand, Starbucks counts more than 300 shops in Shanghai. Be carefull if you want a coffee during the weekend, stabucks shops used to be crowded :)","phone":"","website":"http://www.starbucks.com.cn/","lat":31.1912938279,"lng":121.4578426571},{"id":1011138,"wifi":"Free WiFi","latte":"30 rmb","brand":"starbucks","name":"Hui Jing Life Square Store","addresseng":"No.988 Quxi RdHuangpu District","addresscn":"上海市黄浦区汇暻生活广场鲁班路615号102-103室","open1":"Monday to Sunday：07:00-22:00","open2":"","open3":"","open4":"","description":"Most popular american coffee shop brand, Starbucks counts more than 300 shops in Shanghai. Be carefull if you want a coffee during the weekend, stabucks shops used to be crowded :)","phone":"","website":"http://www.starbucks.com.cn/","lat":31.1981915278,"lng":121.4775261567},{"id":1011136,"wifi":"Free WiFi","latte":"30 rmb","brand":"starbucks","name":"Zhong Jin International Plaza","addresseng":"No.331 N.Caoxi RoadXuhui District","addresscn":"上海市徐汇区漕溪北路331号1层03","open1":"Monday to Friday：07:00-19:30","open2":"Saturday to Sunday：08:00-18:30","open3":"","open4":"","description":"Most popular american coffee shop brand, Starbucks counts more than 300 shops in Shanghai. Be carefull if you want a coffee during the weekend, stabucks shops used to be crowded :)","phone":"","website":"http://www.starbucks.com.cn/","lat":31.190951197,"lng":121.4389713942},{"id":1011058,"wifi":"Free WiFi","latte":"30 rmb","brand":"starbucks","name":"West Wei Fang Rd","addresseng":"Shang HaiWest Wei Fang RdNo.92","addresscn":"上海市浦东新区潍坊西路92号","open1":"Monday to Sunday：07:00-22:00","open2":"","open3":"","open4":"","description":"Most popular american coffee shop brand, Starbucks counts more than 300 shops in Shanghai. Be carefull if you want a coffee during the weekend, stabucks shops used to be crowded :)","phone":"","website":"http://www.starbucks.com.cn/","lat":31.2222117535,"lng":121.5162477623},{"id":1011033,"wifi":"Free WiFi","latte":"30 rmb","brand":"starbucks","name":"Green Milan Outlet","addresseng":"No.39 Guoquan RdYangpu District","addresscn":"上海市杨浦区绿色米兰广场国权路73号","open1":"Monday to Sunday：07:00-22:00","open2":"","open3":"","open4":"","description":"Most popular american coffee shop brand, Starbucks counts more than 300 shops in Shanghai. Be carefull if you want a coffee during the weekend, stabucks shops used to be crowded :)","phone":"","website":"http://www.starbucks.com.cn/","lat":31.2880309389,"lng":121.5179241866},{"id":1011023,"wifi":"Free WiFi","latte":"30 rmb","brand":"starbucks","name":"Hui Nan Century Mart","addresseng":"No.388 Mid Cheng Dong RdPudong District","addresscn":"上海市浦东新区惠南世纪联华城东路384号1楼MSGC2单元","open1":"Monday to Sunday：07:00-22:00","open2":"","open3":"","open4":"","description":"Most popular american coffee shop brand, Starbucks counts more than 300 shops in Shanghai. Be carefull if you want a coffee during the weekend, stabucks shops used to be crowded :)","phone":"","website":"http://www.starbucks.com.cn/","lat":31.0523510083,"lng":121.7634544133},{"id":1011020,"wifi":"Free WiFi","latte":"30 rmb","brand":"starbucks","name":"Xin Da Lu Plaza","addresseng":"No.588, North Nan Quan Rd.,S1-08, South Building","addresscn":"上海市浦东新区新大陆广场南泉北路588号S1-08","open1":"Monday to Sunday：07:00-22:00","open2":"","open3":"","open4":"","description":"Most popular american coffee shop brand, Starbucks counts more than 300 shops in Shanghai. Be carefull if you want a coffee during the weekend, stabucks shops used to be crowded :)","phone":"","website":"http://www.starbucks.com.cn/","lat":31.2284933191,"lng":121.5181239988},{"id":1011018,"wifi":"Free WiFi","latte":"30 rmb","brand":"starbucks","name":"Zhong Jian Tower","addresseng":"No.1568 Century Avenue Pudong","addresscn":"上海市浦东新区世纪大道1568、1588号102A单元","open1":"Monday to Friday：07:00-19:00","open2":"Saturday to Sunday：Closed","open3":"","open4":"","description":"Most popular american coffee shop brand, Starbucks counts more than 300 shops in Shanghai. Be carefull if you want a coffee during the weekend, stabucks shops used to be crowded :)","phone":"","website":"http://www.starbucks.com.cn/","lat":31.2237305499,"lng":121.5334156263},{"id":1011012,"wifi":"Free WiFi","latte":"30 rmb","brand":"starbucks","name":"FuXing Plaza","addresseng":"C103,No.393, M.Fuxing RdHuangpu District","addresscn":"上海市黄浦区复兴广场复兴中路393号C103室","open1":"Monday to Sunday：07:00-22:00","open2":"","open3":"","open4":"","description":"Most popular american coffee shop brand, Starbucks counts more than 300 shops in Shanghai. Be carefull if you want a coffee during the weekend, stabucks shops used to be crowded :)","phone":"","website":"http://www.starbucks.com.cn/","lat":31.2158420257,"lng":121.4747078056},{"id":1010731,"wifi":"Free WiFi","latte":"30 rmb","brand":"starbucks","name":"ARCH","addresseng":"No.533 Loushanguan RdChangning District","addresscn":"上海市长宁区金虹桥国际中心茅台路179号商场L1楼 L113号商铺","open1":"Monday to Sunday：08:00-21:00","open2":"","open3":"","open4":"","description":"Most popular american coffee shop brand, Starbucks counts more than 300 shops in Shanghai. Be carefull if you want a coffee during the weekend, stabucks shops used to be crowded :)","phone":"","website":"http://www.starbucks.com.cn/","lat":31.2093290341,"lng":121.4014576533},{"id":1010448,"wifi":"Free WiFi","latte":"30 rmb","brand":"starbucks","name":"Hui Zhi Plaza","addresseng":"No.3057 Jin Ke RDPudong District","addresscn":"上海市浦东新区汇智广场金科路3057号1F(L1-1A)","open1":"Monday to Sunday：07:00-22:00","open2":"","open3":"","open4":"","description":"Most popular american coffee shop brand, Starbucks counts more than 300 shops in Shanghai. Be carefull if you want a coffee during the weekend, stabucks shops used to be crowded :)","phone":"","website":"http://www.starbucks.com.cn/","lat":31.2041184404,"lng":121.6004076606},{"id":1010418,"wifi":"Free WiFi","latte":"30 rmb","brand":"starbucks","name":"Jin Qiao Square","addresseng":"No.2 Lane 3611 Zhang Yang RDPudong New Area","addresscn":"上海市浦东新区张杨路3611弄2号212、213、214、217、218室","open1":"Monday to Thursday：09:00-22:00","open2":"Friday to Saturday：09:00-22:30","open3":"Sunday：09:00-22:00","open4":"","description":"Most popular american coffee shop brand, Starbucks counts more than 300 shops in Shanghai. Be carefull if you want a coffee during the weekend, stabucks shops used to be crowded :)","phone":"","website":"http://www.starbucks.com.cn/","lat":31.2562333937,"lng":121.5802336221},{"id":1010255,"wifi":"Free WiFi","latte":"30 rmb","brand":"starbucks","name":"Zhong Rong Plaza","addresseng":"South Pudong RoadNo.1088","addresscn":"上海市浦东新区浦东南路1078号1楼09A室","open1":"Monday to Sunday：07:00-22:00","open2":"","open3":"","open4":"","description":"Most popular american coffee shop brand, Starbucks counts more than 300 shops in Shanghai. Be carefull if you want a coffee during the weekend, stabucks shops used to be crowded :)","phone":"","website":"http://www.starbucks.com.cn/","lat":31.2282178118,"lng":121.5152367126},{"id":1010227,"wifi":"Free WiFi","latte":"30 rmb","brand":"starbucks","name":"Zhengli Road Store","addresseng":"No.125 Guotong RdYangpu District","addresscn":"上海市杨浦区创智科技中心国通路125号1层101单元","open1":"Monday to Friday：07:00-20:00","open2":"Saturday to Sunday：08:00-19:30","open3":"","open4":"","description":"Most popular american coffee shop brand, Starbucks counts more than 300 shops in Shanghai. Be carefull if you want a coffee during the weekend, stabucks shops used to be crowded :)","phone":"","website":"http://www.starbucks.com.cn/","lat":31.2985483033,"lng":121.5291756114},{"id":1010226,"wifi":"Free WiFi","latte":"30 rmb","brand":"starbucks","name":" Bamboo Square","addresseng":"No.1088 Fang Dian RDPudong New Area","addresscn":"上海市浦东新区芳甸路1088号","open1":"Monday to Friday：07:00-19:00","open2":"Saturday to Sunday：08:00-18:00","open3":"","open4":"","description":"Most popular american coffee shop brand, Starbucks counts more than 300 shops in Shanghai. Be carefull if you want a coffee during the weekend, stabucks shops used to be crowded :)","phone":"","website":"http://www.starbucks.com.cn/","lat":31.211894758,"lng":121.5614462803},{"id":1010198,"wifi":"Free WiFi","latte":"30 rmb","brand":"starbucks","name":"Suzhou Taicang Hai Yundi-1F,2F","addresseng":"SuzhouNo.86 Haiyundi RdTaicang","addresscn":"太仓市城厢镇南郊海运堤路86-4号","open1":"Monday to Friday：08:00-22:00","open2":"Saturday：08:00-23:00","open3":"Sunday：08:00-22:00","open4":"","description":"Most popular american coffee shop brand, Starbucks counts more than 300 shops in Shanghai. Be carefull if you want a coffee during the weekend, stabucks shops used to be crowded :)","phone":"","website":"http://www.starbucks.com.cn/","lat":31.4387825006,"lng":121.135949204},{"id":1010190,"wifi":"Free WiFi","latte":"30 rmb","brand":"starbucks","name":"North Chengzhong Rd","addresseng":"No.79 N.Chengzhong RdQingpu District","addresscn":"上海市青浦区城中北路79号副楼1楼、2楼","open1":"Monday to Sunday：07:00-22:00","open2":"","open3":"","open4":"","description":"Most popular american coffee shop brand, Starbucks counts more than 300 shops in Shanghai. Be carefull if you want a coffee during the weekend, stabucks shops used to be crowded :)","phone":"","website":"http://www.starbucks.com.cn/","lat":31.1479690589,"lng":121.1113782982},{"id":1010187,"wifi":"Free WiFi","latte":"30 rmb","brand":"starbucks","name":"Hongkou sport loft","addresseng":"No.723 Tongxin RdHongkou District","addresscn":"上海市虹口区虹口运动loft同心路723号11幢102室","open1":"Monday to Sunday：07:00-22:00","open2":"","open3":"","open4":"","description":"Most popular american coffee shop brand, Starbucks counts more than 300 shops in Shanghai. Be carefull if you want a coffee during the weekend, stabucks shops used to be crowded :)","phone":"","website":"http://www.starbucks.com.cn/","lat":31.2701830777,"lng":121.4721222358},{"id":1009931,"wifi":"Free WiFi","latte":"30 rmb","brand":"starbucks","name":"Minhang Plaza - Office Lobby","addresseng":"No.6088 HuMin Road (1F01-1F02)Minhang District","addresscn":"上海市闵行区沪闵路6088号1层01-02号","open1":"Monday to Sunday：07:00-22:00","open2":"","open3":"","open4":"","description":"Most popular american coffee shop brand, Starbucks counts more than 300 shops in Shanghai. Be carefull if you want a coffee during the weekend, stabucks shops used to be crowded :)","phone":"","website":"http://www.starbucks.com.cn/","lat":31.1082599471,"lng":121.3787919567},{"id":1009911,"wifi":"Free WiFi","latte":"30 rmb","brand":"starbucks","name":"Department Of Business Building","addresseng":"No.1286 Min Sheng RDPudong New Area","addresscn":"上海市浦东新区民生路1286号102、103、105单元","open1":"Monday to Friday：07:00-19:00","open2":"Saturday to Sunday：09:00-17:00","open3":"","open4":"","description":"Most popular american coffee shop brand, Starbucks counts more than 300 shops in Shanghai. Be carefull if you want a coffee during the weekend, stabucks shops used to be crowded :)","phone":"","website":"http://www.starbucks.com.cn/","lat":31.2249247487,"lng":121.5490599222},{"id":1009906,"wifi":"Free WiFi","latte":"30 rmb","brand":"starbucks","name":"Li Jin Rd","addresseng":"Li Jin RdNo.1275,1277","addresscn":"上海市浦东新区利津路1275、1277号1F","open1":"Monday to Sunday：07:00-22:00","open2":"","open3":"","open4":"","description":"Most popular american coffee shop brand, Starbucks counts more than 300 shops in Shanghai. Be carefull if you want a coffee during the weekend, stabucks shops used to be crowded :)","phone":"","website":"http://www.starbucks.com.cn/","lat":31.2812865212,"lng":121.5935790788},{"id":1009795,"wifi":"Free WiFi","latte":"30 rmb","brand":"starbucks","name":"Lake Malaren","addresseng":"NO.1088 Luo Feng RoadBaoshan District","addresscn":"上海市宝山区世纪联华1F 7894F01001单元罗芬路1088号","open1":"Monday to Sunday：07:00-22:00","open2":"","open3":"","open4":"","description":"Most popular american coffee shop brand, Starbucks counts more than 300 shops in Shanghai. Be carefull if you want a coffee during the weekend, stabucks shops used to be crowded :)","phone":"","website":"http://www.starbucks.com.cn/","lat":31.4032671102,"lng":121.3505904632},{"id":1009771,"wifi":"Free WiFi","latte":"30 rmb","brand":"starbucks","name":"Novel Plaza - 1F","addresseng":"No.128 W.Nanjing RdHuangpu District","addresscn":"上海市黄浦区南京西路128号永新广场1F","open1":"Monday to Sunday：07:00-22:00","open2":"","open3":"","open4":"","description":"Most popular american coffee shop brand, Starbucks counts more than 300 shops in Shanghai. Be carefull if you want a coffee during the weekend, stabucks shops used to be crowded :)","phone":"","website":"http://www.starbucks.com.cn/","lat":31.2338401636,"lng":121.472322048},{"id":1009716,"wifi":"Free WiFi","latte":"30 rmb","brand":"starbucks","name":"Bailian Binjiang shopping mall","addresseng":"No.228 Ningguo RdYangpu District","addresscn":"上海市杨浦区杨浦百联滨江购物中心宁国路218号L1层1A-024室","open1":"Monday to Thursday：07:00-22:00","open2":"Friday to Saturday：07:00-22:30","open3":"Sunday：07:00-22:00","open4":"","description":"Most popular american coffee shop brand, Starbucks counts more than 300 shops in Shanghai. Be carefull if you want a coffee during the weekend, stabucks shops used to be crowded :)","phone":"","website":"http://www.starbucks.com.cn/","lat":31.2647851391,"lng":121.5374498345},{"id":1009652,"wifi":"Free WiFi","latte":"30 rmb","brand":"starbucks","name":"Pudong Airport T1 domestic depart.","addresseng":"Pudong Airport","addresscn":"上海市浦东新区浦东国际机场T1航站楼国内出发禁区","open1":"Monday to Sunday：05:00-23:00","open2":"","open3":"","open4":"","description":"Most popular american coffee shop brand, Starbucks counts more than 300 shops in Shanghai. Be carefull if you want a coffee during the weekend, stabucks shops used to be crowded :)","phone":"","website":"http://www.starbucks.com.cn/","lat":31.178897003,"lng":121.7866066526},{"id":1009651,"wifi":"Free WiFi","latte":"30 rmb","brand":"starbucks","name":"Pudong Airport T2 domestic No.1","addresseng":"Pudong Airport","addresscn":"上海市浦东新区浦东国际机场T2航站楼国内出发禁区","open1":"Monday to Sunday：06:00-23:00","open2":"","open3":"","open4":"","description":"Most popular american coffee shop brand, Starbucks counts more than 300 shops in Shanghai. Be carefull if you want a coffee during the weekend, stabucks shops used to be crowded :)","phone":"","website":"http://www.starbucks.com.cn/","lat":31.178897003,"lng":121.7866066526},{"id":1009586,"wifi":"Free WiFi","latte":"30 rmb","brand":"starbucks","name":"Minhang Life Plaza","addresseng":"No.900 Heqing RdMinhang District","addresscn":"上海市闵行区老闵行生活广场鹤庆路900号A4单元","open1":"Monday to Thursday：07:00-22:00","open2":"Friday to Saturday：07:00-23:00","open3":"Sunday：07:00-22:00","open4":"","description":"Most popular american coffee shop brand, Starbucks counts more than 300 shops in Shanghai. Be carefull if you want a coffee during the weekend, stabucks shops used to be crowded :)","phone":"","website":"http://www.starbucks.com.cn/","lat":31.0066839267,"lng":121.4048125},{"id":1009548,"wifi":"Free WiFi","latte":"30 rmb","brand":"starbucks","name":" Central Park Dream Port","addresseng":"Unit118,No.801,Baoxiang RoadJiaDing District","addresscn":"上海市嘉定区宝翔路801号118单元","open1":"Monday to Sunday：07:00-22:00","open2":"","open3":"","open4":"","description":"Most popular american coffee shop brand, Starbucks counts more than 300 shops in Shanghai. Be carefull if you want a coffee during the weekend, stabucks shops used to be crowded :)","phone":"","website":"http://www.starbucks.com.cn/","lat":31.3094433632,"lng":121.319968245},{"id":1009490,"wifi":"Free WiFi","latte":"30 rmb","brand":"starbucks","name":"Tangzhen Heng Sheng Plaza","addresseng":"No. 1702 Shang Feng Rd.Rm 101","addresscn":"上海市浦东新区唐镇恒生广场上丰路1702号101室","open1":"Monday to Sunday：07:00-22:00","open2":"","open3":"","open4":"","description":"Most popular american coffee shop brand, Starbucks counts more than 300 shops in Shanghai. Be carefull if you want a coffee during the weekend, stabucks shops used to be crowded :)","phone":"","website":"http://www.starbucks.com.cn/","lat":31.2411265793,"lng":121.6774502485},{"id":1009480,"wifi":"Free WiFi","latte":"30 rmb","brand":"starbucks","name":"Wu Dao Kou Square","addresseng":"No.1  Lane 1199  Min Sheng RdUnit 105A","addresscn":"上海市浦东新区证大五道口广场民生路1199号1号楼105A","open1":"Monday to Friday：07:00-19:30","open2":"Saturday to Sunday：Closed","open3":"","open4":"","description":"Most popular american coffee shop brand, Starbucks counts more than 300 shops in Shanghai. Be carefull if you want a coffee during the weekend, stabucks shops used to be crowded :)","phone":"","website":"http://www.starbucks.com.cn/","lat":31.2268683272,"lng":121.5492407523},{"id":1009415,"wifi":"Free WiFi","latte":"30 rmb","brand":"starbucks","name":"Huang Pu Garden","addresseng":"No.1130 S.Xizang RdHuangpu District","addresscn":"上海市黄浦区黄浦新苑西藏南路1130号","open1":"Monday to Sunday：07:30-22:00","open2":"","open3":"","open4":"","description":"Most popular american coffee shop brand, Starbucks counts more than 300 shops in Shanghai. Be carefull if you want a coffee during the weekend, stabucks shops used to be crowded :)","phone":"","website":"http://www.starbucks.com.cn/","lat":31.2102347016,"lng":121.4863198914},{"id":1009412,"wifi":"Free WiFi","latte":"30 rmb","brand":"starbucks","name":" Film Museum","addresseng":"No.595 North Caoxi RdXuhui District","addresscn":"上海市徐汇区上海电影博物馆漕溪北路595号","open1":"Monday to Sunday：07:00-22:00","open2":"","open3":"","open4":"","description":"Most popular american coffee shop brand, Starbucks counts more than 300 shops in Shanghai. Be carefull if you want a coffee during the weekend, stabucks shops used to be crowded :)","phone":"","website":"http://www.starbucks.com.cn/","lat":31.1865751399,"lng":121.4377935013},{"id":1009406,"wifi":"Free WiFi","latte":"30 rmb","brand":"starbucks","name":"Bingo Plaza","addresseng":"No.341 Tianshan RdChangning District","addresscn":"上海市长宁区天山路342号缤谷广场一层","open1":"Monday to Thursday：07:00-22:00","open2":"Friday to Saturday：07:00-22:30","open3":"Sunday：07:00-22:00","open4":"","description":"Most popular american coffee shop brand, Starbucks counts more than 300 shops in Shanghai. Be carefull if you want a coffee during the weekend, stabucks shops used to be crowded :)","phone":"","website":"http://www.starbucks.com.cn/","lat":31.2140637516,"lng":121.3867834455},{"id":1009405,"wifi":"Free WiFi","latte":"30 rmb","brand":"starbucks","name":"SHA Hong Qiao Airport T2 - Arrival","addresseng":"Arrival Level, T2, Hong Qiao AirportMinhang District","addresscn":"上海市长宁区虹桥机场二号航站楼申达一路1号虹桥机场T2航站楼到达公众区0L-1号商铺","open1":"Monday to Sunday：Open 24 hours","open2":"","open3":"","open4":"","description":"Most popular american coffee shop brand, Starbucks counts more than 300 shops in Shanghai. Be carefull if you want a coffee during the weekend, stabucks shops used to be crowded :)","phone":"","website":"http://www.starbucks.com.cn/","lat":31.2016579101,"lng":121.3273233319},{"id":1009404,"wifi":"Free WiFi","latte":"30 rmb","brand":"starbucks","name":"North Qinzhou Rd","addresseng":"No.238 North Qinzhou RdXuhui District","addresscn":"上海市徐汇区田尚坊钦州北路238-240号","open1":"Monday to Sunday：07:00-22:00","open2":"","open3":"","open4":"","description":"Most popular american coffee shop brand, Starbucks counts more than 300 shops in Shanghai. Be carefull if you want a coffee during the weekend, stabucks shops used to be crowded :)","phone":"","website":"http://www.starbucks.com.cn/","lat":31.1805640724,"lng":121.4201271059},{"id":1009403,"wifi":"Free WiFi","latte":"30 rmb","brand":"starbucks","name":"Red Sun","addresseng":"Cross Tonghe Rd., Huma RdBaoshan District","addresscn":"上海市宝山区通河路539、537-1号","open1":"Monday to Sunday：07:00-22:00","open2":"","open3":"","open4":"","description":"Most popular american coffee shop brand, Starbucks counts more than 300 shops in Shanghai. Be carefull if you want a coffee during the weekend, stabucks shops used to be crowded :)","phone":"","website":"http://www.starbucks.com.cn/","lat":31.3373126758,"lng":121.4455522089},{"id":1009375,"wifi":"Free WiFi","latte":"30 rmb","brand":"starbucks","name":"Lehongfang","addresseng":"No.288 Hongjing RdMinhang District","addresscn":"上海市闵行区乐虹坊虹井路288号乐虹坊一楼103单元","open1":"Monday to Thursday：07:00-22:00","open2":"Friday to Saturday：07:00-22:30","open3":"Sunday：07:00-22:00","open4":"","description":"Most popular american coffee shop brand, Starbucks counts more than 300 shops in Shanghai. Be carefull if you want a coffee during the weekend, stabucks shops used to be crowded :)","phone":"","website":"http://www.starbucks.com.cn/","lat":31.1757592258,"lng":121.3716986237},{"id":1009374,"wifi":"Free WiFi","latte":"30 rmb","brand":"starbucks","name":"Foxtown international plaza","addresseng":"No.899 Lingling RdXuhui District","addresscn":"上海市徐汇区飞洲国际广场零陵路889号","open1":"Monday to Thursday：07:00-22:00","open2":"Friday to Saturday：07:00-23:00","open3":"Sunday：07:00-22:00","open4":"","description":"Most popular american coffee shop brand, Starbucks counts more than 300 shops in Shanghai. Be carefull if you want a coffee during the weekend, stabucks shops used to be crowded :)","phone":"","website":"http://www.starbucks.com.cn/","lat":31.1832189606,"lng":121.4372260346},{"id":1009372,"wifi":"Free WiFi","latte":"30 rmb","brand":"starbucks","name":"District 6 shopping mall","addresseng":"No.333 West YinGao RdBaoshan District","addresscn":"上海市宝山区殷高西路333号3-152、3-153单元","open1":"Monday to Sunday：07:00-22:00","open2":"","open3":"","open4":"","description":"Most popular american coffee shop brand, Starbucks counts more than 300 shops in Shanghai. Be carefull if you want a coffee during the weekend, stabucks shops used to be crowded :)","phone":"","website":"http://www.starbucks.com.cn/","lat":31.3205908878,"lng":121.4720123391},{"id":1009342,"wifi":"Free WiFi","latte":"30 rmb","brand":"starbucks","name":"Gongping Rd","addresseng":"Room.3-2 No.36 Gongping RdHongkou District","addresscn":"上海市虹口区公平路38号地下一层3-2单元","open1":"Monday to Friday：07:00-19:00","open2":"Saturday to Sunday：08:00-17:00","open3":"","open4":"","description":"Most popular american coffee shop brand, Starbucks counts more than 300 shops in Shanghai. Be carefull if you want a coffee during the weekend, stabucks shops used to be crowded :)","phone":"","website":"http://www.starbucks.com.cn/","lat":31.2499718651,"lng":121.5081283937},{"id":1009326,"wifi":"Free WiFi","latte":"30 rmb","brand":"starbucks","name":"Dabaishu Store","addresseng":"No.351 E.Wenshui RdHongkou District","addresscn":"上海市虹口区1876老站创意园汶水东路351号1幢101室、102室","open1":"Monday to Sunday：07:00-22:00","open2":"","open3":"","open4":"","description":"Most popular american coffee shop brand, Starbucks counts more than 300 shops in Shanghai. Be carefull if you want a coffee during the weekend, stabucks shops used to be crowded :)","phone":"","website":"http://www.starbucks.com.cn/","lat":31.2905335467,"lng":121.4820888682},{"id":1009301,"wifi":"Free WiFi","latte":"30 rmb","brand":"starbucks","name":" Railway Station - NS","addresseng":" Railway Station, the North SquaZhabei District","addresscn":"上海市闸北区秣陵路303号50幢N2单元","open1":"Monday to Sunday：07:00-22:00","open2":"","open3":"","open4":"","description":"Most popular american coffee shop brand, Starbucks counts more than 300 shops in Shanghai. Be carefull if you want a coffee during the weekend, stabucks shops used to be crowded :)","phone":"","website":"http://www.starbucks.com.cn/","lat":31.2477918513,"lng":121.4546646441},{"id":1009118,"wifi":"Free WiFi","latte":"30 rmb","brand":"starbucks","name":"Kunshan Shimao Plaza-GF","addresseng":"KunshanNo.199 East Qianjin RdDevelopment Zone","addresscn":"昆山市开发区前进东路223号","open1":"Monday to Sunday：07:00-22:00","open2":"","open3":"","open4":"","description":"Most popular american coffee shop brand, Starbucks counts more than 300 shops in Shanghai. Be carefull if you want a coffee during the weekend, stabucks shops used to be crowded :)","phone":"","website":"http://www.starbucks.com.cn/","lat":31.3836930707,"lng":121.0524526822},{"id":1009029,"wifi":"Free WiFi","latte":"30 rmb","brand":"starbucks","name":"XieTu Rd","addresseng":"XieTu RdXuhui District","addresscn":"上海市徐汇区南丹东路8号第一层101室","open1":"Monday to Sunday：07:00-22:00","open2":"","open3":"","open4":"","description":"Most popular american coffee shop brand, Starbucks counts more than 300 shops in Shanghai. Be carefull if you want a coffee during the weekend, stabucks shops used to be crowded :)","phone":"","website":"http://www.starbucks.com.cn/","lat":31.1910954627,"lng":121.4457819929},{"id":1008574,"wifi":"Free WiFi","latte":"30 rmb","brand":"starbucks","name":"Sihang Tiandi","addresseng":"NO.18 North Xi Zang RoadZhabei District","addresscn":"上海市闸北区四行天地西藏北路18号105单元","open1":"Monday to Sunday：07:00-22:00","open2":"","open3":"","open4":"","description":"Most popular american coffee shop brand, Starbucks counts more than 300 shops in Shanghai. Be carefull if you want a coffee during the weekend, stabucks shops used to be crowded :)","phone":"","website":"http://www.starbucks.com.cn/","lat":31.2411876918,"lng":121.4720982583},{"id":1008566,"wifi":"Free WiFi","latte":"30 rmb","brand":"starbucks","name":"Hong Yin Plaza","addresseng":"No.7 Lane.1755 Nan Lu Gong rdPudong New Area","addresscn":"上海市浦东新区南芦公路1755弄7号楼1-2层","open1":"Monday to Sunday：07:00-22:00","open2":"","open3":"","open4":"","description":"Most popular american coffee shop brand, Starbucks counts more than 300 shops in Shanghai. Be carefull if you want a coffee during the weekend, stabucks shops used to be crowded :)","phone":"","website":"http://www.starbucks.com.cn/","lat":30.9093617384,"lng":121.8190481609},{"id":1008558,"wifi":"Free WiFi","latte":"30 rmb","brand":"starbucks","name":"The HUB-XTD","addresseng":"Hongqiao CBD, Shenhong RdMinhang District","addresscn":"上海市闵行区虹桥天地广场申长路900号2号楼一层103单元","open1":"Monday to Friday：07:00-20:00","open2":"Saturday：08:00-18:00","open3":"Sunday：Closed","open4":"","description":"Most popular american coffee shop brand, Starbucks counts more than 300 shops in Shanghai. Be carefull if you want a coffee during the weekend, stabucks shops used to be crowded :)","phone":"","website":"http://www.starbucks.com.cn/","lat":31.1976675631,"lng":121.3140687899},{"id":1008541,"wifi":"Free WiFi","latte":"30 rmb","brand":"starbucks","name":"Songjiang Wanda Plaza","addresseng":"Line.658 Guangfulin RdSongjiang","addresscn":"上海市松江区万达广场广富林路658号1031-1032号单元","open1":"Monday to Sunday：10:00-22:00","open2":"","open3":"","open4":"","description":"Most popular american coffee shop brand, Starbucks counts more than 300 shops in Shanghai. Be carefull if you want a coffee during the weekend, stabucks shops used to be crowded :)","phone":"","website":"http://www.starbucks.com.cn/","lat":31.0594360532,"lng":121.2225518065},{"id":1008539,"wifi":"Free WiFi","latte":"30 rmb","brand":"starbucks","name":"Hope Hotel","addresseng":"Lobby, No.500 Zhaojiabang RdXuhui","addresscn":"上海市徐汇区好望角酒店肇嘉浜路500号","open1":"Monday to Sunday：07:00-22:00","open2":"","open3":"","open4":"","description":"Most popular american coffee shop brand, Starbucks counts more than 300 shops in Shanghai. Be carefull if you want a coffee during the weekend, stabucks shops used to be crowded :)","phone":"","website":"http://www.starbucks.com.cn/","lat":31.2013653715,"lng":121.4543619287},{"id":1008538,"wifi":"Free WiFi","latte":"30 rmb","brand":"starbucks","name":"Line2 Jing'An Temple","addresseng":"Gate5,Line2 Jing'An TempleJing'An","addresscn":"上海市静安区轨道交通二号线静安寺车站五号出口2-130商铺","open1":"Monday to Sunday：07:00-22:00","open2":"","open3":"","open4":"","description":"Most popular american coffee shop brand, Starbucks counts more than 300 shops in Shanghai. Be carefull if you want a coffee during the weekend, stabucks shops used to be crowded :)","phone":"","website":"http://www.starbucks.com.cn/","lat":31.2233027623,"lng":121.4455951685},{"id":1008537,"wifi":"Free WiFi","latte":"30 rmb","brand":"starbucks","name":"Hongkong Plaza","addresseng":"No.283,Middle HuaiHai RoadHuangpu","addresscn":"上海市黄浦区香港广场北楼1-106淮海中路283号","open1":"Monday to Friday：08:00-22:00","open2":"Saturday to Sunday：10:00-22:00","open3":"","open4":"","description":"Most popular american coffee shop brand, Starbucks counts more than 300 shops in Shanghai. Be carefull if you want a coffee during the weekend, stabucks shops used to be crowded :)","phone":"","website":"http://www.starbucks.com.cn/","lat":31.2236323692,"lng":121.4749815483},{"id":1008524,"wifi":"Free WiFi","latte":"30 rmb","brand":"starbucks","name":"Yangpu Orient Shopping Centre","addresseng":"No.2500 Siping RdYangpu","addresscn":"上海市杨浦区第 L1 层B19-F01-1-030 室四平路2500号","open1":"Monday to Sunday：07:00-22:00","open2":"","open3":"","open4":"","description":"Most popular american coffee shop brand, Starbucks counts more than 300 shops in Shanghai. Be carefull if you want a coffee during the weekend, stabucks shops used to be crowded :)","phone":"","website":"http://www.starbucks.com.cn/","lat":31.2986144251,"lng":121.5156483257},{"id":1008508,"wifi":"Free WiFi","latte":"30 rmb","brand":"starbucks","name":"Gumei Innovation Street","addresseng":"No.555 Gumei RdMinhang","addresscn":"上海市闵行区文化创意街古美路569号1F","open1":"Monday to Friday：07:00-22:00","open2":"Saturday to Sunday：07:00-23:00","open3":"","open4":"","description":"Most popular american coffee shop brand, Starbucks counts more than 300 shops in Shanghai. Be carefull if you want a coffee during the weekend, stabucks shops used to be crowded :)","phone":"","website":"http://www.starbucks.com.cn/","lat":31.1447331009,"lng":121.404697608},{"id":1008507,"wifi":"Free WiFi","latte":"30 rmb","brand":"starbucks","name":"Golden Waterfront Garden","addresseng":"No.1 Lane200 S.Zhongshan RdHuangpu","addresscn":"上海市黄浦区老太平弄100号","open1":"Monday to Sunday：07:00-21:30","open2":"","open3":"","open4":"","description":"Most popular american coffee shop brand, Starbucks counts more than 300 shops in Shanghai. Be carefull if you want a coffee during the weekend, stabucks shops used to be crowded :)","phone":"","website":"http://www.starbucks.com.cn/","lat":31.2227938253,"lng":121.5006893856},{"id":1008498,"wifi":"Free WiFi","latte":"30 rmb","brand":"starbucks","name":"Chen Da Square","addresseng":"No.2 Lane 1058 Ju Feng RD","addresscn":"上海市浦东新区晨达广场巨峰路1058弄2号","open1":"Monday to Friday：07:00-22:00","open2":"Saturday to Sunday：08:00-22:00","open3":"","open4":"","description":"Most popular american coffee shop brand, Starbucks counts more than 300 shops in Shanghai. Be carefull if you want a coffee during the weekend, stabucks shops used to be crowded :)","phone":"","website":"http://www.starbucks.com.cn/","lat":31.2762021599,"lng":121.6528823398},{"id":1008497,"wifi":"Free WiFi","latte":"30 rmb","brand":"starbucks","name":"Bi Bo Road Store","addresseng":"No.889 Bi Bo RDPudong District","addresscn":"上海市浦东新区碧波路889号E106-E107","open1":"Monday to Friday：07:00-19:00","open2":"Saturday to Sunday：09:00-17:00","open3":"","open4":"","description":"Most popular american coffee shop brand, Starbucks counts more than 300 shops in Shanghai. Be carefull if you want a coffee during the weekend, stabucks shops used to be crowded :)","phone":"","website":"http://www.starbucks.com.cn/","lat":31.1960275435,"lng":121.5845975205},{"id":1008442,"wifi":"Free WiFi","latte":"30 rmb","brand":"starbucks","name":"Innovative Life Plaza","addresseng":"Ground Floor,Building 32,No.328,Xin Zhua","addresscn":"上海市松江区莘砖公路328号32栋楼创新广场第1层","open1":"Monday to Sunday：07:00-22:00","open2":"","open3":"","open4":"","description":"Most popular american coffee shop brand, Starbucks counts more than 300 shops in Shanghai. Be carefull if you want a coffee during the weekend, stabucks shops used to be crowded :)","phone":"","website":"http://www.starbucks.com.cn/","lat":31.0919789708,"lng":121.3294303516},{"id":1008425,"wifi":"Free WiFi","latte":"30 rmb","brand":"starbucks","name":"Chamtime Plaza - Unit E1-04C","addresseng":"Unit E1-04CJinke Rd,Zuchongzhi Rd.","addresscn":"上海市浦东新区祖冲之路1239弄6号10号楼1层05-159单元","open1":"Monday to Sunday：07:00-22:00","open2":"","open3":"","open4":"","description":"Most popular american coffee shop brand, Starbucks counts more than 300 shops in Shanghai. Be carefull if you want a coffee during the weekend, stabucks shops used to be crowded :)","phone":"","website":"http://www.starbucks.com.cn/","lat":31.2071660516,"lng":121.6034198295},{"id":1008418,"wifi":"Free WiFi","latte":"30 rmb","brand":"starbucks","name":"HENG SHAN FANG","addresseng":"No.890-1 Heng Shan RoadXuhui District","addresscn":"上海市徐汇区衡山坊衡山路890弄3号","open1":"Monday to Thursday：07:00-22:00","open2":"Friday：07:00-22:30","open3":"Saturday to Sunday：07:00-22:00","open4":"","description":"Most popular american coffee shop brand, Starbucks counts more than 300 shops in Shanghai. Be carefull if you want a coffee during the weekend, stabucks shops used to be crowded :)","phone":"","website":"http://www.starbucks.com.cn/","lat":31.1960525897,"lng":121.439524874},{"id":1008410,"wifi":"Free WiFi","latte":"30 rmb","brand":"starbucks","name":"MTR City Plaza","addresseng":"No.1325 Jinshajiang Rd","addresscn":"上海市普陀区近铁城市广场真北路818号B2层06\\22单元","open1":"Monday to Sunday：07:00-22:00","open2":"","open3":"","open4":"","description":"Most popular american coffee shop brand, Starbucks counts more than 300 shops in Shanghai. Be carefull if you want a coffee during the weekend, stabucks shops used to be crowded :)","phone":"","website":"http://www.starbucks.com.cn/","lat":31.2328473356,"lng":121.381745181},{"id":1008391,"wifi":"Free WiFi","latte":"30 rmb","brand":"starbucks","name":"Lan sheng Cinema","addresseng":"No.2-8,middle Huaihai Rd","addresscn":"上海市黄浦区兰生电影院淮海中路2-8号","open1":"Monday to Friday：08:30-22:00","open2":"Saturday to Sunday：10:30-22:00","open3":"","open4":"","description":"Most popular american coffee shop brand, Starbucks counts more than 300 shops in Shanghai. Be carefull if you want a coffee during the weekend, stabucks shops used to be crowded :)","phone":"","website":"http://www.starbucks.com.cn/","lat":31.2253335013,"lng":121.4797081058},{"id":1008380,"wifi":"Free WiFi","latte":"30 rmb","brand":"starbucks","name":"Star Life","addresseng":"No.1665 Hongqiao Rd","addresscn":"上海市长宁区星空生活广场虹桥路1665号A-104、A-105单元","open1":"Monday to Sunday：07:00-22:00","open2":"","open3":"","open4":"","description":"Most popular american coffee shop brand, Starbucks counts more than 300 shops in Shanghai. Be carefull if you want a coffee during the weekend, stabucks shops used to be crowded :)","phone":"","website":"http://www.starbucks.com.cn/","lat":31.1995169682,"lng":121.3930095936},{"id":1008377,"wifi":"Free WiFi","latte":"30 rmb","brand":"starbucks","name":" Pudong Airport T1","addresseng":"Internatioanl Departure Hall,3rd FloorTerminal 1, Pudong Airport","addresscn":"上海市浦东新区浦一号候机楼国际出发禁区商业区域餐饮项目迎宾大道6000号","open1":"Monday to Sunday：Open 24 hours","open2":"","open3":"","open4":"","description":"Most popular american coffee shop brand, Starbucks counts more than 300 shops in Shanghai. Be carefull if you want a coffee during the weekend, stabucks shops used to be crowded :)","phone":"","website":"http://www.starbucks.com.cn/","lat":31.1502292203,"lng":121.8057906216},{"id":1008369,"wifi":"Free WiFi","latte":"30 rmb","brand":"starbucks","name":"M2","addresseng":"No.489 South Henan RdHuangpu District","addresscn":"上海市黄浦区L138和L140单元河南南路489号","open1":"Monday to Sunday：07:00-22:00","open2":"","open3":"","open4":"","description":"Most popular american coffee shop brand, Starbucks counts more than 300 shops in Shanghai. Be carefull if you want a coffee during the weekend, stabucks shops used to be crowded :)","phone":"","website":"http://www.starbucks.com.cn/","lat":31.2230132292,"lng":121.4895638425},{"id":1008352,"wifi":"Free WiFi","latte":"30 rmb","brand":"starbucks","name":"Ming Shi Garden","addresseng":"No.98 West GuangYuan Road","addresscn":"上海市徐汇区广元西路98号3-4室","open1":"Monday to Sunday：07:00-22:00","open2":"","open3":"","open4":"","description":"Most popular american coffee shop brand, Starbucks counts more than 300 shops in Shanghai. Be carefull if you want a coffee during the weekend, stabucks shops used to be crowded :)","phone":"","website":"http://www.starbucks.com.cn/","lat":31.1963180785,"lng":121.4344236686},{"id":1008329,"wifi":"Free WiFi","latte":"30 rmb","brand":"starbucks","name":"Nike Campus","addresseng":"No.99 Jiangwan Cheng RoadYangpu District","addresscn":"上海市杨浦区新江湾城江湾城路99号一幢","open1":"Monday to Friday：06:30-19:00","open2":"Saturday：09:00-18:00","open3":"Sunday：Closed","open4":"","description":"Most popular american coffee shop brand, Starbucks counts more than 300 shops in Shanghai. Be carefull if you want a coffee during the weekend, stabucks shops used to be crowded :)","phone":"","website":"http://www.starbucks.com.cn/","lat":31.3163791332,"lng":121.5095060988},{"id":1008280,"wifi":"Free WiFi","latte":"30 rmb","brand":"starbucks","name":"Lu Jia Zui Residence store","addresseng":"No.1550 Zhang Yang Road","addresscn":"No.1550 Zhang Yang Road","open1":"Monday to Sunday：07:00-22:00","open2":"","open3":"","open4":"","description":"Most popular american coffee shop brand, Starbucks counts more than 300 shops in Shanghai. Be carefull if you want a coffee during the weekend, stabucks shops used to be crowded :)","phone":"","website":"http://www.starbucks.com.cn/","lat":31.2272139635,"lng":121.5186425115},{"id":1008162,"wifi":"Free WiFi","latte":"30 rmb","brand":"starbucks","name":"Jin An Kerry Center - GF","addresseng":"No. 1515 Nanjing Road WestUnit E1-02K,E1-03, Ground FloorJin An Kerry Center","addresscn":"上海市静安区静安嘉里中心商场E1-03、E1-06K室南京西路1515号","open1":"Monday to Friday：07:00-22:00","open2":"Saturday to Sunday：10:00-22:00","open3":"","open4":"","description":"Most popular american coffee shop brand, Starbucks counts more than 300 shops in Shanghai. Be carefull if you want a coffee during the weekend, stabucks shops used to be crowded :)","phone":"","website":"http://www.starbucks.com.cn/","lat":31.224581116,"lng":121.4490389317},{"id":1008153,"wifi":"Free WiFi","latte":"30 rmb","brand":"starbucks","name":" EXPO UBPA","addresseng":"No.564 Nan Che Zhan Rd.Huang pu District","addresscn":"上海市黄浦区南车站路564号","open1":"Monday to Sunday：07:00-21:00","open2":"","open3":"","open4":"","description":"Most popular american coffee shop brand, Starbucks counts more than 300 shops in Shanghai. Be carefull if you want a coffee during the weekend, stabucks shops used to be crowded :)","phone":"","website":"http://www.starbucks.com.cn/","lat":31.2031636825,"lng":121.4946550572},{"id":1008082,"wifi":"Free WiFi","latte":"30 rmb","brand":"starbucks","name":"Huiyang Plaza","addresseng":"No.55 East Tianlin Rd.Xuhui District","addresscn":"上海市徐汇区汇阳广场田林东路75号1层105单元","open1":"Monday to Sunday：07:00-22:00","open2":"","open3":"","open4":"","description":"Most popular american coffee shop brand, Starbucks counts more than 300 shops in Shanghai. Be carefull if you want a coffee during the weekend, stabucks shops used to be crowded :)","phone":"","website":"http://www.starbucks.com.cn/","lat":31.17436566,"lng":121.4339271353},{"id":1008042,"wifi":"Free WiFi","latte":"30 rmb","brand":"starbucks","name":"Basin 3","addresseng":"No 333 Guoding RdYangPu","addresscn":"上海市杨浦区3号湾国定路319号F135单元","open1":"Monday to Sunday：07:00-22:00","open2":"","open3":"","open4":"","description":"Most popular american coffee shop brand, Starbucks counts more than 300 shops in Shanghai. Be carefull if you want a coffee during the weekend, stabucks shops used to be crowded :)","phone":"","website":"http://www.starbucks.com.cn/","lat":31.2961759354,"lng":121.5094651373},{"id":1007868,"wifi":"Free WiFi","latte":"30 rmb","brand":"starbucks","name":"Baosteel Mall","addresseng":"No1738,MuDanjiang RdBaoshan District","addresscn":"上海市宝山区牡丹江路1738号","open1":"Monday to Sunday：07:00-22:00","open2":"","open3":"","open4":"","description":"Most popular american coffee shop brand, Starbucks counts more than 300 shops in Shanghai. Be carefull if you want a coffee during the weekend, stabucks shops used to be crowded :)","phone":"","website":"http://www.starbucks.com.cn/","lat":31.4045154085,"lng":121.4818281133},{"id":1007862,"wifi":"Free WiFi","latte":"30 rmb","brand":"starbucks","name":"Henderson 688","addresseng":"No.688 W.Nanjing Rd","addresscn":"上海市静安区恒基688广场南京西路688号L106B室","open1":"Monday to Friday：07:00-21:00","open2":"Saturday to Sunday：08:00-20:00","open3":"","open4":"","description":"Most popular american coffee shop brand, Starbucks counts more than 300 shops in Shanghai. Be carefull if you want a coffee during the weekend, stabucks shops used to be crowded :)","phone":"","website":"http://www.starbucks.com.cn/","lat":31.2311592275,"lng":121.4647131995},{"id":1007856,"wifi":"Free WiFi","latte":"30 rmb","brand":"starbucks","name":"Gu Cun Park","addresseng":"NO.111 Lu Xiang road","addresscn":"上海市宝山区陆翔路111弄119号","open1":"Monday to Sunday：07:00-22:00","open2":"","open3":"","open4":"","description":"Most popular american coffee shop brand, Starbucks counts more than 300 shops in Shanghai. Be carefull if you want a coffee during the weekend, stabucks shops used to be crowded :)","phone":"","website":"http://www.starbucks.com.cn/","lat":31.3463773656,"lng":121.3710901956},{"id":1007846,"wifi":"Free WiFi","latte":"30 rmb","brand":"starbucks","name":"Jiangqiao Old Town","addresseng":"No.101,Lane 505,Yu Ji Dun Rd","addresscn":"上海市嘉定区4幢101、102、109铺位虞姬墩路505号","open1":"Monday to Sunday：07:00-22:00","open2":"","open3":"","open4":"","description":"Most popular american coffee shop brand, Starbucks counts more than 300 shops in Shanghai. Be carefull if you want a coffee during the weekend, stabucks shops used to be crowded :)","phone":"","website":"http://www.starbucks.com.cn/","lat":31.2556032335,"lng":121.3429636317},{"id":1007423,"wifi":"Free WiFi","latte":"30 rmb","brand":"starbucks","name":"Jiuguang Lifestyle Plaza","addresseng":"No.1618,West Nanjing Rd","addresscn":"上海市静安区南京西路1618号1层S103室","open1":"Monday to Thursday：07:00-22:00","open2":"Friday to Saturday：07:00-22:30","open3":"Sunday：07:00-22:00","open4":"","description":"Most popular american coffee shop brand, Starbucks counts more than 300 shops in Shanghai. Be carefull if you want a coffee during the weekend, stabucks shops used to be crowded :)","phone":"","website":"http://www.starbucks.com.cn/","lat":31.2237586016,"lng":121.4465582633},{"id":1006948,"wifi":"Free WiFi","latte":"30 rmb","brand":"starbucks","name":"China Art Museum","addresseng":"No.205 Shangnan Rd","addresscn":"上海市浦东新区1层序厅浦东新区 上南路161号","open1":"Monday：Closed","open2":"Tuesday to Sunday：10:00-18:00","open3":"","open4":"","description":"Most popular american coffee shop brand, Starbucks counts more than 300 shops in Shanghai. Be carefull if you want a coffee during the weekend, stabucks shops used to be crowded :)","phone":"","website":"http://www.starbucks.com.cn/","lat":31.1837459308,"lng":121.4942164695},{"id":1006939,"wifi":"Free WiFi","latte":"30 rmb","brand":"starbucks","name":"Ju Feng Yuan Road","addresseng":"No.91 Ju Feng Yuan Road","addresscn":"上海市宝山区1号楼116、117室聚丰园路91号","open1":"Monday to Sunday：07:00-22:00","open2":"","open3":"","open4":"","description":"Most popular american coffee shop brand, Starbucks counts more than 300 shops in Shanghai. Be carefull if you want a coffee during the weekend, stabucks shops used to be crowded :)","phone":"","website":"http://www.starbucks.com.cn/","lat":31.3149775527,"lng":121.3861130756},{"id":1006923,"wifi":"Free WiFi","latte":"30 rmb","brand":"starbucks","name":"118 Plaza","addresseng":"NO 1685 Jinshajiang RdPutuo","addresscn":"上海市普陀区金沙江路1685号-4区","open1":"Monday to Sunday：07:00-22:00","open2":"","open3":"","open4":"","description":"Most popular american coffee shop brand, Starbucks counts more than 300 shops in Shanghai. Be carefull if you want a coffee during the weekend, stabucks shops used to be crowded :)","phone":"","website":"http://www.starbucks.com.cn/","lat":31.2306552997,"lng":121.3787929558},