[
    {
        "id": "68301",
        "name": "Henderson Metropolitan",
        "addresseng": "No.300,E.Nanjing RdHuangpu District",
        "namecn": "名人大厦店",
        "addresscn": "上海市黄浦区名人大厦南京东路300号L114商铺",
        "wifi": "Free WiFi",
        "description": "Most popular american coffee shop brand, Starbucks counts more than 300 shops in Shanghai. Be carefull if you want a coffee during the weekend, stabucks shops used to be crowded :)",
        "Phone": "",
        "website": "http://www.starbucks.com.cn/",
        "latte": "30 rmb",
        "open1": "Monday to Friday：07:00-22:00",
        "open2": "Saturday to Sunday：09:00-22:00",
        "open3": "",
        "open4": "",
        "latbaidu": "31.243455",
        "lngbaidu": "121.490992",
        "lat": "31.2373806824",
        "lng": "121.4844926089"
    },
    {
        "id": "92693",
        "name": "Bund Plaza",
        "addresseng": "No 233 East Nanjing RoadHuangpu District",
        "namecn": "老介福店",
        "addresscn": "上海市黄浦区老介福南京东路233号",
        "wifi": "Free WiFi",
        "description": "Most popular american coffee shop brand, Starbucks counts more than 300 shops in Shanghai. Be carefull if you want a coffee during the weekend, stabucks shops used to be crowded :)",
        "Phone": "",
        "website": "http://www.starbucks.com.cn/",
        "latte": "30 rmb",
        "open1": "Monday to Sunday：07:00-22:30",
        "open2": "",
        "open3": "",
        "open4": "",
        "latbaidu": "31.24337",
        "lngbaidu": "121.492066",
        "lat": "31.2372955256",
        "lng": "121.4855656004"
    },
    {
        "id": "1006355",
        "name": "Hong Yi Plaza",
        "addresseng": "No.299 E. Nanjing Rd.Huangpu District",
        "namecn": "宏伊广场店",
        "addresscn": "上海市黄浦区2楼S-215单元南京东路299号",
        "wifi": "Free WiFi",
        "description": "Most popular american coffee shop brand, Starbucks counts more than 300 shops in Shanghai. Be carefull if you want a coffee during the weekend, stabucks shops used to be crowded :)",
        "Phone": "",
        "website": "http://www.starbucks.com.cn/",
        "latte": "30 rmb",
        "open1": "Monday to Sunday：10:00-22:00",
        "open2": "",
        "open3": "",
        "open4": "",
        "latbaidu": "31.243042",
        "lngbaidu": "121.491193",
        "lat": "31.2369669206",
        "lng": "121.4846934202"
    },
    {
        "id": "116349",
        "name": "Middle Fujian road",
        "addresseng": "No. 353-359, Fujianzhong Rd.Huangpu Distrct",
        "namecn": "福建中路店",
        "addresscn": "上海市黄浦区福建中路福建中路353号-359号1-2层1A02单元",
        "wifi": "Free WiFi",
        "description": "Most popular american coffee shop brand, Starbucks counts more than 300 shops in Shanghai. Be carefull if you want a coffee during the weekend, stabucks shops used to be crowded :)",
        "Phone": "",
        "website": "http://www.starbucks.com.cn/",
        "latte": "30 rmb",
        "open1": "Monday to Sunday：07:00-22:00",
        "open2": "",
        "open3": "",
        "open4": "",
        "latbaidu": "31.242042",
        "lngbaidu": "121.486605",
        "lat": "31.235965076",
        "lng": "121.4801097284"
    },
    {
        "id": "19084",
        "name": "Sail Tower",
        "addresseng": "No.266,Hankou Rd,Sail TowerHuangpu District",
        "namecn": "申大厦店",
        "addresscn": "上海市黄浦区申大厦102单元汉口路266号",
        "wifi": "Free WiFi",
        "description": "Most popular american coffee shop brand, Starbucks counts more than 300 shops in Shanghai. Be carefull if you want a coffee during the weekend, stabucks shops used to be crowded :)",
        "Phone": "",
        "website": "http://www.starbucks.com.cn/",
        "latte": "30 rmb",
        "open1": "Monday to Saturday：07:00-22:00",
        "open2": "Sunday：08:00-22:00",
        "open3": "",
        "open4": "",
        "latbaidu": "31.241726",
        "lngbaidu": "121.491645",
        "lat": "31.2356484931",
        "lng": "121.4851449957"
    },
    {
        "id": "19397",
        "name": "Joy City - 3F",
        "addresseng": "No.180,Qufu RdZhabei district",
        "namecn": "大悦城店",
        "addresscn": "上海市闸北区大悦城曲阜路180号",
        "wifi": "Free WiFi",
        "description": "Most popular american coffee shop brand, Starbucks counts more than 300 shops in Shanghai. Be carefull if you want a coffee during the weekend, stabucks shops used to be crowded :)",
        "Phone": "",
        "website": "http://www.starbucks.com.cn/",
        "latte": "30 rmb",
        "open1": "Monday to Sunday：10:00-22:00",
        "open2": "",
        "open3": "",
        "open4": "",
        "latbaidu": "31.248342",
        "lngbaidu": "121.479273",
        "lat": "31.2422766968",
        "lng": "121.4727846132"
    },
    {
        "id": "1008574",
        "name": "Sihang Tiandi",
        "addresseng": "NO.18 North Xi Zang RoadZhabei District",
        "namecn": "四行天地店",
        "addresscn": "上海市闸北区四行天地西藏北路18号105单元",
        "wifi": "Free WiFi",
        "description": "Most popular american coffee shop brand, Starbucks counts more than 300 shops in Shanghai. Be carefull if you want a coffee during the weekend, stabucks shops used to be crowded :)",
        "Phone": "",
        "website": "http://www.starbucks.com.cn/",
        "latte": "30 rmb",
        "open1": "Monday to Sunday：07:00-22:00",
        "open2": "",
        "open3": "",
        "open4": "",
        "latbaidu": "31.247255",
        "lngbaidu": "121.478586",
        "lat": "31.2411876918",
        "lng": "121.4720982583"
    },
    {
        "id": "1801",
        "name": "Yongan",
        "addresseng": "No.635,East Nanjing RdHuangpu district",
        "namecn": "永安店",
        "addresscn": "上海市黄浦区永安百货一楼南京东路635号",
        "wifi": "Free WiFi",
        "description": "Most popular american coffee shop brand, Starbucks counts more than 300 shops in Shanghai. Be carefull if you want a coffee during the weekend, stabucks shops used to be crowded :)",
        "Phone": "",
        "website": "http://www.starbucks.com.cn/",
        "latte": "30 rmb",
        "open1": "Monday to Sunday：09:30-22:00",
        "open2": "",
        "open3": "",
        "open4": "",
        "latbaidu": "31.24124",
        "lngbaidu": "121.484908",
        "lat": "31.2351615966",
        "lng": "121.4784143219"
    },
    {
        "id": "89911",
        "name": "The Bund Store - Ground Floor",
        "addresseng": "No.367,E. No.1 Zhongshan RdHuangpu Distric",
        "namecn": "外滩店",
        "addresscn": "上海市黄浦区外滩中山东一路367号",
        "wifi": "Free WiFi",
        "description": "Most popular american coffee shop brand, Starbucks counts more than 300 shops in Shanghai. Be carefull if you want a coffee during the weekend, stabucks shops used to be crowded :)",
        "Phone": "",
        "website": "http://www.starbucks.com.cn/",
        "latte": "30 rmb",
        "open1": "Monday to Thursday：07:00-22:30",
        "open2": "Friday to Saturday：07:00-23:00",
        "open3": "Sunday：07:00-22:30",
        "open4": "",
        "latbaidu": "31.245911",
        "lngbaidu": "121.497033",
        "lat": "31.2398412127",
        "lng": "121.4905279363"
    },
    {
        "id": "63283",
        "name": "Howard Johnson Plaza Hotel",
        "addresseng": "No.595,Jiujiang RdHuangpu District",
        "namecn": "古象大酒店",
        "addresscn": "上海市黄浦区古象大酒店九江路595号一层",
        "wifi": "Free WiFi",
        "description": "Most popular american coffee shop brand, Starbucks counts more than 300 shops in Shanghai. Be carefull if you want a coffee during the weekend, stabucks shops used to be crowded :)",
        "Phone": "",
        "website": "http://www.starbucks.com.cn/",
        "latte": "30 rmb",
        "open1": "Monday to Thursday：07:00-20:00",
        "open2": "Friday：07:00-22:00",
        "open3": "Saturday：08:30-22:00",
        "open4": "Sunday：08:30-20:00",
        "latbaidu": "31.240181",
        "lngbaidu": "121.486054",
        "lat": "31.2341006432",
        "lng": "121.4795592458"
    },
    {
        "id": "1611",
        "name": "Amanda Plaza",
        "addresseng": "No.1118 Changshou RoadPutuo districtAmanda Plaza",
        "namecn": "芳汇广场店",
        "addresscn": "上海市普陀区芳汇广场F117号商铺长寿路1118号",
        "wifi": "Free WiFi",
        "description": "Most popular american coffee shop brand, Starbucks counts more than 300 shops in Shanghai. Be carefull if you want a coffee during the weekend, stabucks shops used to be crowded :)",
        "Phone": "",
        "website": "http://www.starbucks.com.cn/",
        "latte": "30 rmb",
        "open1": "Monday to Friday：07:00-22:00",
        "open2": "Saturday to Sunday：08:00-22:00",
        "open3": "",
        "open4": "",
        "latbaidu": "31.236752",
        "lngbaidu": "121.433795",
        "lat": "31.2306653181",
        "lng": "121.4273493177"
    },
    {
        "id": "113412",
        "name": "The Point Jingan - Ground Floor",
        "addresseng": "No. 553, An Yuan RdJing'an District",
        "namecn": "静安门大厦店",
        "addresscn": "上海市静安区静安门大厦安远路553号",
        "wifi": "Free WiFi",
        "description": "Most popular american coffee shop brand, Starbucks counts more than 300 shops in Shanghai. Be carefull if you want a coffee during the weekend, stabucks shops used to be crowded :)",
        "Phone": "",
        "website": "http://www.starbucks.com.cn/",
        "latte": "30 rmb",
        "open1": "Monday to Sunday：07:00-22:00",
        "open2": "",
        "open3": "",
        "open4": "",
        "latbaidu": "31.243662",
        "lngbaidu": "121.445273",
        "lat": "31.2375880642",
        "lng": "121.4388165397"
    },
    {
        "id": "1005514",
        "name": "Union Place",
        "addresseng": "No.555,Caoyang Rd.PuTuo District",
        "namecn": "汇融天地店",
        "addresscn": "上海市普陀区汇融天地曹杨路555号",
        "wifi": "Free WiFi",
        "description": "Most popular american coffee shop brand, Starbucks counts more than 300 shops in Shanghai. Be carefull if you want a coffee during the weekend, stabucks shops used to be crowded :)",
        "Phone": "",
        "website": "http://www.starbucks.com.cn/",
        "latte": "30 rmb",
        "open1": "Monday to Thursday：07:00-22:00",
        "open2": "Friday to Saturday：07:00-22:30",
        "open3": "Sunday：07:00-22:00",
        "open4": "",
        "latbaidu": "31.242824",
        "lngbaidu": "121.42455",
        "lat": "31.2367485184",
        "lng": "121.4181129989"
    },
    {
        "id": "18889",
        "name": "800 Show-ChangDe Rd ChangPing Rd",
        "addresseng": "No. 800 ChangDe RaodJing An District",
        "namecn": "800秀店",
        "addresscn": "上海市静安区800秀常德路800号",
        "wifi": "Free WiFi",
        "description": "Most popular american coffee shop brand, Starbucks counts more than 300 shops in Shanghai. Be carefull if you want a coffee during the weekend, stabucks shops used to be crowded :)",
        "Phone": "",
        "website": "http://www.starbucks.com.cn/",
        "latte": "30 rmb",
        "open1": "Monday to Sunday：07:00-22:30",
        "open2": "",
        "open3": "",
        "open4": "",
        "latbaidu": "31.239663",
        "lngbaidu": "121.449937",
        "lat": "31.2335816877",
        "lng": "121.4434761602"
    },
    {
        "id": "19282",
        "name": "Huge World - Ground Floor",
        "addresseng": "No.3018, North Zhongshan RoadPutuo district",
        "namecn": "长城大厦店",
        "addresscn": "上海市普陀区长城大厦123单元中山北路3018号",
        "wifi": "Free WiFi",
        "description": "Most popular american coffee shop brand, Starbucks counts more than 300 shops in Shanghai. Be carefull if you want a coffee during the weekend, stabucks shops used to be crowded :)",
        "Phone": "",
        "website": "http://www.starbucks.com.cn/",
        "latte": "30 rmb",
        "open1": "Monday to Thursday：07:00-22:00",
        "open2": "Friday to Saturday：07:00-22:30",
        "open3": "Sunday：07:00-22:00",
        "open4": "",
        "latbaidu": "31.244353",
        "lngbaidu": "121.42227",
        "lat": "31.2382803388",
        "lng": "121.4158351399"
    },
    {
        "id": "1005810",
        "name": "Yue Xing Intl Business Center",
        "addresseng": "No. 3300 North Zhongshan Road B1148-149Putuo District",
        "namecn": "月星环球港店",
        "addresscn": "上海市普陀区月星环球港B1148-B1149中山北路3300号",
        "wifi": "Free WiFi",
        "description": "Most popular american coffee shop brand, Starbucks counts more than 300 shops in Shanghai. Be carefull if you want a coffee during the weekend, stabucks shops used to be crowded :)",
        "Phone": "",
        "website": "http://www.starbucks.com.cn/",
        "latte": "30 rmb",
        "open1": "Monday to Sunday：10:00-22:00",
        "open2": "",
        "open3": "",
        "open4": "",
        "latbaidu": "31.237356",
        "lngbaidu": "121.417614",
        "lat": "31.2312704323",
        "lng": "121.4111835119"
    },
    {
        "id": "1011363",
        "name": "HK New World Dept - Changshou Rd",
        "addresseng": "NO115 Unit 110 Changshou RoadPu Tuo District",
        "namecn": "巴黎春天长寿路店",
        "addresscn": "上海市普陀区长寿路巴黎春天长寿路175号，179号L110单元",
        "wifi": "Free WiFi",
        "description": "Most popular american coffee shop brand, Starbucks counts more than 300 shops in Shanghai. Be carefull if you want a coffee during the weekend, stabucks shops used to be crowded :)",
        "Phone": "",
        "website": "http://www.starbucks.com.cn/",
        "latte": "30 rmb",
        "open1": "Monday to Sunday：07:00-22:00",
        "open2": "",
        "open3": "",
        "open4": "",
        "latbaidu": "31.24888",
        "lngbaidu": "121.447243",
        "lat": "31.2428156892",
        "lng": "121.4407846899"
    },
    {
        "id": "1667",
        "name": "Fortune Times",
        "addresseng": "No.137,Changshou RdPutuo district",
        "namecn": "财富时代店",
        "addresscn": "上海市普陀区财富时代长寿路137号1楼02室",
        "wifi": "Free WiFi",
        "description": "Most popular american coffee shop brand, Starbucks counts more than 300 shops in Shanghai. Be carefull if you want a coffee during the weekend, stabucks shops used to be crowded :)",
        "Phone": "",
        "website": "http://www.starbucks.com.cn/",
        "latte": "30 rmb",
        "open1": "Monday to Friday：07:00-20:30",
        "open2": "Saturday to Sunday：08:30-19:00",
        "open3": "",
        "open4": "",
        "latbaidu": "31.249487",
        "lngbaidu": "121.448359",
        "lat": "31.2434238089",
        "lng": "121.4418996419"
    },
    {
        "id": "1889",
        "name": "Jiang Su Rd , Yuyuan Rd-Changning D",
        "addresseng": "No.458,Jiangsu RdChangning District",
        "namecn": "江苏路店",
        "addresscn": "上海市长宁区舜元弘基天地江苏路458号1层116室",
        "wifi": "Free WiFi",
        "description": "Most popular american coffee shop brand, Starbucks counts more than 300 shops in Shanghai. Be carefull if you want a coffee during the weekend, stabucks shops used to be crowded :)",
        "Phone": "",
        "website": "http://www.starbucks.com.cn/",
        "latte": "30 rmb",
        "open1": "Monday to Sunday：07:00-22:00",
        "open2": "",
        "open3": "",
        "open4": "",
        "latbaidu": "31.224504",
        "lngbaidu": "121.4376",
        "lat": "31.2183947257",
        "lng": "121.4311507448"
    },
    {
        "id": "1790",
        "name": "Zao-Fong World Trade Bldg-GF-Unit C",
        "addresseng": "No.369,Jiangsu RdChangning DistrictZao-Fong World Trade Building",
        "namecn": "兆丰店",
        "addresscn": "上海市长宁区兆丰世贸大厦江苏路369号",
        "wifi": "Free WiFi",
        "description": "Most popular american coffee shop brand, Starbucks counts more than 300 shops in Shanghai. Be carefull if you want a coffee during the weekend, stabucks shops used to be crowded :)",
        "Phone": "",
        "website": "http://www.starbucks.com.cn/",
        "latte": "30 rmb",
        "open1": "Monday to Friday：07:00-22:30",
        "open2": "Saturday to Sunday：08:00-22:00",
        "open3": "",
        "open4": "",
        "latbaidu": "31.225307",
        "lngbaidu": "121.437951",
        "lat": "31.2191992069",
        "lng": "121.4315014152"
    },
    {
        "id": "1005409",
        "name": "The Third Space",
        "addresseng": "No.928 ZhenHua RoadBaoshan district",
        "namecn": "真华路店",
        "addresscn": "上海市宝山区巴黎春天真华路928号一层101室",
        "wifi": "Free WiFi",
        "description": "Most popular american coffee shop brand, Starbucks counts more than 300 shops in Shanghai. Be carefull if you want a coffee during the weekend, stabucks shops used to be crowded :)",
        "Phone": "",
        "website": "http://www.starbucks.com.cn/",
        "latte": "30 rmb",
        "open1": "Monday to Thursday：07:00-22:00",
        "open2": "Friday to Saturday：07:00-22:30",
        "open3": "Sunday：07:00-22:00",
        "open4": "",
        "latbaidu": "31.277821",
        "lngbaidu": "121.41824",
        "lat": "31.2718100733",
        "lng": "121.4118089241"
    },
    {
        "id": "1006538",
        "name": "Da Hua Rd",
        "addresseng": "No 518. Da Hua RoadBaoshan District",
        "namecn": "大华乐购店",
        "addresscn": "上海市宝山区乐购大华店第一层的S1、S2单元大华路518号",
        "wifi": "Free WiFi",
        "description": "Most popular american coffee shop brand, Starbucks counts more than 300 shops in Shanghai. Be carefull if you want a coffee during the weekend, stabucks shops used to be crowded :)",
        "Phone": "",
        "website": "http://www.starbucks.com.cn/",
        "latte": "30 rmb",
        "open1": "Monday to Thursday：07:00-22:00",
        "open2": "Friday to Saturday：07:00-22:30",
        "open3": "Sunday：07:00-22:00",
        "open4": "",
        "latbaidu": "31.277939",
        "lngbaidu": "121.420798",
        "lat": "31.2719282909",
        "lng": "121.4143645221"
    },
    {
        "id": "1591",
        "name": "Zhenguang Road",
        "addresseng": "No.1288,Zhenguang RdPutuo district",
        "namecn": "真光路店",
        "addresscn": "上海市普陀区百联购物广场真光路1288号",
        "wifi": "Free WiFi",
        "description": "Most popular american coffee shop brand, Starbucks counts more than 300 shops in Shanghai. Be carefull if you want a coffee during the weekend, stabucks shops used to be crowded :)",
        "Phone": "",
        "website": "http://www.starbucks.com.cn/",
        "latte": "30 rmb",
        "open1": "Monday to Sunday：07:00-22:00",
        "open2": "",
        "open3": "",
        "open4": "",
        "latbaidu": "31.250969",
        "lngbaidu": "121.390985",
        "lat": "31.2449085426",
        "lng": "121.384579517"
    },
    {
        "id": "113955",
        "name": "Meichuan Store",
        "addresseng": "No.1297 Meichuan Rd.PuTuo District",
        "namecn": "梅川路店",
        "addresscn": "上海市普陀区梅川路梅川路1297号",
        "wifi": "Free WiFi",
        "description": "Most popular american coffee shop brand, Starbucks counts more than 300 shops in Shanghai. Be carefull if you want a coffee during the weekend, stabucks shops used to be crowded :)",
        "Phone": "",
        "website": "http://www.starbucks.com.cn/",
        "latte": "30 rmb",
        "open1": "Monday to Thursday：07:00-22:00",
        "open2": "Friday to Saturday：07:00-22:30",
        "open3": "Sunday：07:00-22:00",
        "open4": "",
        "latbaidu": "31.249936",
        "lngbaidu": "121.386275",
        "lat": "31.2438736371",
        "lng": "121.3798739397"
    },
    {
        "id": "87634",
        "name": "Central Mansion",
        "addresseng": "No.21-22,Lane 58,Tongchuan RdPutuo District",
        "namecn": "品尊国际广场店",
        "addresscn": "上海市普陀区品尊国际广场铜川路58弄21-22号",
        "wifi": "Free WiFi",
        "description": "Most popular american coffee shop brand, Starbucks counts more than 300 shops in Shanghai. Be carefull if you want a coffee during the weekend, stabucks shops used to be crowded :)",
        "Phone": "",
        "website": "http://www.starbucks.com.cn/",
        "latte": "30 rmb",
        "open1": "Monday to Thursday：07:00-22:00",
        "open2": "Friday to Saturday：07:00-22:30",
        "open3": "Sunday：07:00-22:00",
        "open4": "",
        "latbaidu": "31.261838",
        "lngbaidu": "121.425571",
        "lat": "31.2557975913",
        "lng": "121.4191330402"
    },
    {
        "id": "1011557",
        "name": "Da Hua Three Road",
        "addresseng": "Bao Shan District, Da Hua San RdNo.81",
        "namecn": "大华三路店",
        "addresscn": "上海市宝山区大华三路81号",
        "wifi": "Free WiFi",
        "description": "Most popular american coffee shop brand, Starbucks counts more than 300 shops in Shanghai. Be carefull if you want a coffee during the weekend, stabucks shops used to be crowded :)",
        "Phone": "",
        "website": "http://www.starbucks.com.cn/",
        "latte": "30 rmb",
        "open1": "Monday to Sunday：07:00-22:00",
        "open2": "",
        "open3": "",
        "open4": "",
        "latbaidu": "31.281842",
        "lngbaidu": "121.425443",
        "lat": "31.2758384904",
        "lng": "121.4190051604"
    },
    {
        "id": "1008410",
        "name": "MTR City Plaza",
        "addresseng": "No.1325 Jinshajiang Rd",
        "namecn": "近铁城市广场店",
        "addresscn": "上海市普陀区近铁城市广场真北路818号B2层06\\22单元",
        "wifi": "Free WiFi",
        "description": "Most popular american coffee shop brand, Starbucks counts more than 300 shops in Shanghai. Be carefull if you want a coffee during the weekend, stabucks shops used to be crowded :)",
        "Phone": "",
        "website": "http://www.starbucks.com.cn/",
        "latte": "30 rmb",
        "open1": "Monday to Sunday：07:00-22:00",
        "open2": "",
        "open3": "",
        "open4": "",
        "latbaidu": "31.23893",
        "lngbaidu": "121.388148",
        "lat": "31.2328473356",
        "lng": "121.381745181"
    },
    {
        "id": "1006939",
        "name": "Ju Feng Yuan Road",
        "addresseng": "No.91 Ju Feng Yuan Road",
        "namecn": "聚丰园路店",
        "addresscn": "上海市宝山区1号楼116、117室聚丰园路91号",
        "wifi": "Free WiFi",
        "description": "Most popular american coffee shop brand, Starbucks counts more than 300 shops in Shanghai. Be carefull if you want a coffee during the weekend, stabucks shops used to be crowded :)",
        "Phone": "",
        "website": "http://www.starbucks.com.cn/",
        "latte": "30 rmb",
        "open1": "Monday to Sunday：07:00-22:00",
        "open2": "",
        "open3": "",
        "open4": "",
        "latbaidu": "31.320909",
        "lngbaidu": "121.39252",
        "lat": "31.3149775527",
        "lng": "121.3861130756"
    },
    {
        "id": "1007856",
        "name": "Gu Cun Park",
        "addresseng": "NO.111 Lu Xiang road",
        "namecn": "顾村公园店",
        "addresscn": "上海市宝山区陆翔路111弄119号",
        "wifi": "Free WiFi",
        "description": "Most popular american coffee shop brand, Starbucks counts more than 300 shops in Shanghai. Be carefull if you want a coffee during the weekend, stabucks shops used to be crowded :)",
        "Phone": "",
        "website": "http://www.starbucks.com.cn/",
        "latte": "30 rmb",
        "open1": "Monday to Sunday：07:00-22:00",
        "open2": "",
        "open3": "",
        "open4": "",
        "latbaidu": "31.352251",
        "lngbaidu": "121.377483",
        "lat": "31.3463773656",
        "lng": "121.3710901956"
    },
    {
        "id": "1009548",
        "name": " Central Park Dream Port",
        "addresseng": "Unit118,No.801,Baoxiang RoadJiaDing District",
        "namecn": "南翔五彩城店",
        "addresscn": "上海市嘉定区宝翔路801号118单元",
        "wifi": "Free WiFi",
        "description": "Most popular american coffee shop brand, Starbucks counts more than 300 shops in Shanghai. Be carefull if you want a coffee during the weekend, stabucks shops used to be crowded :)",
        "Phone": "",
        "website": "http://www.starbucks.com.cn/",
        "latte": "30 rmb",
        "open1": "Monday to Sunday：07:00-22:00",
        "open2": "",
        "open3": "",
        "open4": "",
        "latbaidu": "31.315385",
        "lngbaidu": "121.326313",
        "lat": "31.3094433632",
        "lng": "121.319968245"
    },
    {
        "id": "113402",
        "name": "MCC Shineton Plaza - Ground Floor",
        "addresseng": "No.3, Lane 31, Jiatong Rd.NanXiang Town, JiaDing district",
        "namecn": "南翔祥腾广场店",
        "addresscn": "上海市嘉定区南翔祥腾广场佳通路31弄3号",
        "wifi": "Free WiFi",
        "description": "Most popular american coffee shop brand, Starbucks counts more than 300 shops in Shanghai. Be carefull if you want a coffee during the weekend, stabucks shops used to be crowded :)",
        "Phone": "",
        "website": "http://www.starbucks.com.cn/",
        "latte": "30 rmb",
        "open1": "Monday to Thursday：07:00-22:00",
        "open2": "Friday to Saturday：07:00-22:30",
        "open3": "Sunday：07:00-22:00",
        "open4": "",
        "latbaidu": "31.301348",
        "lngbaidu": "121.328098",
        "lat": "31.2953804708",
        "lng": "121.3217515688"
    },
    {
        "id": "1011168",
        "name": "ZhongJi Building",
        "addresseng": "No.819 Yinxiang RdJiading District",
        "namecn": "中暨大厦店",
        "addresscn": "上海市嘉定区中暨大厦银翔路819弄1号04单元",
        "wifi": "Free WiFi",
        "description": "Most popular american coffee shop brand, Starbucks counts more than 300 shops in Shanghai. Be carefull if you want a coffee during the weekend, stabucks shops used to be crowded :)",
        "Phone": "",
        "website": "http://www.starbucks.com.cn/",
        "latte": "30 rmb",
        "open1": "Monday to Sunday：07:00-22:00",
        "open2": "",
        "open3": "",
        "open4": "",
        "latbaidu": "31.294149",
        "lngbaidu": "121.325717",
        "lat": "31.2881681916",
        "lng": "121.3193728046"
    },
    {
        "id": "1007846",
        "name": "Jiangqiao Old Town",
        "addresseng": "No.101,Lane 505,Yu Ji Dun Rd",
        "namecn": "江桥老街店",
        "addresscn": "上海市嘉定区4幢101、102、109铺位虞姬墩路505号",
        "wifi": "Free WiFi",
        "description": "Most popular american coffee shop brand, Starbucks counts more than 300 shops in Shanghai. Be carefull if you want a coffee during the weekend, stabucks shops used to be crowded :)",
        "Phone": "",
        "website": "http://www.starbucks.com.cn/",
        "latte": "30 rmb",
        "open1": "Monday to Sunday：07:00-22:00",
        "open2": "",
        "open3": "",
        "open4": "",
        "latbaidu": "31.261644",
        "lngbaidu": "121.34933",
        "lat": "31.2556032335",
        "lng": "121.3429636317"
    },
    {
        "id": "1011556",
        "name": "E-mart",
        "addresseng": "NO.2211 West Changjiang RoadBaoshan District",
        "namecn": "长江西路店",
        "addresscn": "上海市宝山区纪蕴路38号A-68单元",
        "wifi": "Free WiFi",
        "description": "Most popular american coffee shop brand, Starbucks counts more than 300 shops in Shanghai. Be carefull if you want a coffee during the weekend, stabucks shops used to be crowded :)",
        "Phone": "",
        "website": "http://www.starbucks.com.cn/",
        "latte": "30 rmb",
        "open1": "Monday to Sunday：07:00-22:00",
        "open2": "",
        "open3": "",
        "open4": "",
        "latbaidu": "31.340097",
        "lngbaidu": "121.445489",
        "lat": "31.3342009465",
        "lng": "121.4390323369"
    },
    {
        "id": "1009795",
        "name": "Lake Malaren",
        "addresseng": "NO.1088 Luo Feng RoadBaoshan District",
        "namecn": "美兰湖店",
        "addresscn": "上海市宝山区世纪联华1F 7894F01001单元罗芬路1088号",
        "wifi": "Free WiFi",
        "description": "Most popular american coffee shop brand, Starbucks counts more than 300 shops in Shanghai. Be carefull if you want a coffee during the weekend, stabucks shops used to be crowded :)",
        "Phone": "",
        "website": "http://www.starbucks.com.cn/",
        "latte": "30 rmb",
        "open1": "Monday to Sunday：07:00-22:00",
        "open2": "",
        "open3": "",
        "open4": "",
        "latbaidu": "31.409036",
        "lngbaidu": "121.356964",
        "lat": "31.4032671102",
        "lng": "121.3505904632"
    },
    {
        "id": "1006076",
        "name": "Liu Cheng International",
        "addresseng": "No.295,Tacheng Rd.Jiading District",
        "namecn": "嘉定疁城国际店",
        "addresscn": "上海市嘉定区疁城国际塔城路295号",
        "wifi": "Free WiFi",
        "description": "Most popular american coffee shop brand, Starbucks counts more than 300 shops in Shanghai. Be carefull if you want a coffee during the weekend, stabucks shops used to be crowded :)",
        "Phone": "",
        "website": "http://www.starbucks.com.cn/",
        "latte": "30 rmb",
        "open1": "Monday to Thursday：07:00-22:00",
        "open2": "Friday to Saturday：07:00-23:00",
        "open3": "Sunday：07:00-22:00",
        "open4": "",
        "latbaidu": "31.389253",
        "lngbaidu": "121.262749",
        "lat": "31.3834476188",
        "lng": "121.2564639325"
    },
    {
        "id": "1659",
        "name": "Robinsons",
        "addresseng": "CNo.138,ChengZhong Rd.JiaDing District",
        "namecn": "嘉定罗宾森店",
        "addresscn": "上海市嘉定镇罗宾森购物广场L1-1、L2-1商铺城中路138号",
        "wifi": "Free WiFi",
        "description": "Most popular american coffee shop brand, Starbucks counts more than 300 shops in Shanghai. Be carefull if you want a coffee during the weekend, stabucks shops used to be crowded :)",
        "Phone": "",
        "website": "http://www.starbucks.com.cn/",
        "latte": "30 rmb",
        "open1": "Monday to Sunday：08:00-22:00",
        "open2": "",
        "open3": "",
        "open4": "",
        "latbaidu": "31.390311",
        "lngbaidu": "121.252365",
        "lat": "31.3845075704",
        "lng": "121.2460896833"
    },
    {
        "id": "1006519",
        "name": "Jiaso Live Plaza",
        "addresseng": "No.6130 North Jiasong Rd.",
        "namecn": "嘉实生活广场店",
        "addresscn": "上海市嘉定区嘉松北路6130号",
        "wifi": "Free WiFi",
        "description": "Most popular american coffee shop brand, Starbucks counts more than 300 shops in Shanghai. Be carefull if you want a coffee during the weekend, stabucks shops used to be crowded :)",
        "Phone": "",
        "website": "http://www.starbucks.com.cn/",
        "latte": "30 rmb",
        "open1": "Monday to Sunday：07:00-22:00",
        "open2": "",
        "open3": "",
        "open4": "",
        "latbaidu": "31.293283",
        "lngbaidu": "121.223432",
        "lat": "31.2873005942",
        "lng": "121.2171838518"
    },
    {
        "id": "113414",
        "name": "Taicang Wanda Plaza - Ground Floor",
        "addresseng": "TaicangNo.188, dong Rd.Chengxiang Town",
        "namecn": "太仓万达广场店",
        "addresscn": "太仓市城厢镇万达广场1层1023铺位上海东路188号",
        "wifi": "Free WiFi",
        "description": "Most popular american coffee shop brand, Starbucks counts more than 300 shops in Shanghai. Be carefull if you want a coffee during the weekend, stabucks shops used to be crowded :)",
        "Phone": "",
        "website": "http://www.starbucks.com.cn/",
        "latte": "30 rmb",
        "open1": "Monday to Thursday：08:00-22:00",
        "open2": "Friday to Saturday：08:00-22:30",
        "open3": "Sunday：08:00-22:00",
        "open4": "",
        "latbaidu": "31.464733",
        "lngbaidu": "121.14434",
        "lat": "31.4590668479",
        "lng": "121.1381661204"
    },
    {
        "id": "1010198",
        "name": "Suzhou Taicang Hai Yundi-1F,2F",
        "addresseng": "SuzhouNo.86 Haiyundi RdTaicang",
        "namecn": "太仓海运堤店",
        "addresscn": "太仓市城厢镇南郊海运堤路86-4号",
        "wifi": "Free WiFi",
        "description": "Most popular american coffee shop brand, Starbucks counts more than 300 shops in Shanghai. Be carefull if you want a coffee during the weekend, stabucks shops used to be crowded :)",
        "Phone": "",
        "website": "http://www.starbucks.com.cn/",
        "latte": "30 rmb",
        "open1": "Monday to Friday：08:00-22:00",
        "open2": "Saturday：08:00-23:00",
        "open3": "Sunday：08:00-22:00",
        "open4": "",
        "latbaidu": "31.444486",
        "lngbaidu": "121.142121",
        "lat": "31.4387825006",
        "lng": "121.135949204"
    },
    {
        "id": "20379",
        "name": "Taicang HuaXu Fortune Centre - GF",
        "addresseng": "TaicangNo. 95 South Renmin RdChengxiang TownTaicang HuaXu Fortune Centre",
        "namecn": "#N/A",
        "addresscn": "太仓95号人民南路城厢镇太仓华旭财富中心",
        "wifi": "Free WiFi",
        "description": "Most popular american coffee shop brand, Starbucks counts more than 300 shops in Shanghai. Be carefull if you want a coffee during the weekend, stabucks shops used to be crowded :)",
        "Phone": "",
        "website": "http://www.starbucks.com.cn/",
        "latte": "30 rmb",
        "open1": "Monday to Friday：07:00-22:30",
        "open2": "Saturday to Sunday：08:00-22:30",
        "open3": "",
        "open4": "",
        "latbaidu": "31.510182",
        "lngbaidu": "121.096545",
        "lat": "31.5045996823",
        "lng": "121.0904160006"
    },
    {
        "id": "88712",
        "name": "Jia Ting Hui- Ground Floor",
        "addresseng": "No.1055,S.Moyu RdJiading District",
        "namecn": "嘉亭荟店",
        "addresscn": "上海市嘉定区嘉亭荟城市生活广场108室墨玉南路1055号",
        "wifi": "Free WiFi",
        "description": "Most popular american coffee shop brand, Starbucks counts more than 300 shops in Shanghai. Be carefull if you want a coffee during the weekend, stabucks shops used to be crowded :)",
        "Phone": "",
        "website": "http://www.starbucks.com.cn/",
        "latte": "30 rmb",
        "open1": "Monday to Sunday：08:00-22:00",
        "open2": "",
        "open3": "",
        "open4": "",
        "latbaidu": "31.293882",
        "lngbaidu": "121.168828",
        "lat": "31.2879006991",
        "lng": "121.1626311258"
    },
    {
        "id": "90031",
        "name": "Kunshan Huaqiao Alibaba - GF",
        "addresseng": "KunshanNo.183,Huaan RdHuaqiao TownElectronic Business Building",
        "namecn": "昆山花桥商务城店",
        "addresscn": "昆山市花桥镇1层2#1~2#4铺位花安路183号",
        "wifi": "Free WiFi",
        "description": "Most popular american coffee shop brand, Starbucks counts more than 300 shops in Shanghai. Be carefull if you want a coffee during the weekend, stabucks shops used to be crowded :)",
        "Phone": "",
        "website": "http://www.starbucks.com.cn/",
        "latte": "30 rmb",
        "open1": "Monday to Sunday：07:30-21:30",
        "open2": "",
        "open3": "",
        "open4": "",
        "latbaidu": "31.307928",
        "lngbaidu": "121.095521",
        "lat": "31.3019726081",
        "lng": "121.0893929621"
    },
    {
        "id": "51996",
        "name": "Jiangqiao Wanda",
        "addresseng": "No. 1051, West Jin Sha Jiang Rd.Jiading Distrct",
        "namecn": "江桥万达店",
        "addresscn": "上海市嘉定区万达广场金沙江西路1051弄1-100号1100单元",
        "wifi": "Free WiFi",
        "description": "Most popular american coffee shop brand, Starbucks counts more than 300 shops in Shanghai. Be carefull if you want a coffee during the weekend, stabucks shops used to be crowded :)",
        "Phone": "",
        "website": "http://www.starbucks.com.cn/",
        "latte": "30 rmb",
        "open1": "Monday to Sunday：10:00-22:00",
        "open2": "",
        "open3": "",
        "open4": "",
        "latbaidu": "31.247528",
        "lngbaidu": "121.330528",
        "lat": "31.2414611954",
        "lng": "121.324179287"
    },
    {
        "id": "1843",
        "name": "Jin Feng Road",
        "addresseng": "No.447,JinFeng RdMinHang District",
        "namecn": "金丰路店",
        "addresscn": "上海市闵行区金丰路金丰路447号",
        "wifi": "Free WiFi",
        "description": "Most popular american coffee shop brand, Starbucks counts more than 300 shops in Shanghai. Be carefull if you want a coffee during the weekend, stabucks shops used to be crowded :)",
        "Phone": "",
        "website": "http://www.starbucks.com.cn/",
        "latte": "30 rmb",
        "open1": "Monday to Sunday：07:00-21:30",
        "open2": "",
        "open3": "",
        "open4": "",
        "latbaidu": "31.20909",
        "lngbaidu": "121.291199",
        "lat": "31.2029522933",
        "lng": "121.2848872175"
    },
    {
        "id": "1852",
        "name": "Zhaoxiang",
        "addresseng": "NO.2888 Huqingping RoadQinpu District",
        "namecn": "赵巷店",
        "addresscn": "上海市青浦区青浦区赵巷休闲场所沪青平公路2888号B区101室",
        "wifi": "Free WiFi",
        "description": "Most popular american coffee shop brand, Starbucks counts more than 300 shops in Shanghai. Be carefull if you want a coffee during the weekend, stabucks shops used to be crowded :)",
        "Phone": "",
        "website": "http://www.starbucks.com.cn/",
        "latte": "30 rmb",
        "open1": "Monday to Friday：09:30-21:00",
        "open2": "Saturday to Sunday：09:00-21:30",
        "open3": "",
        "open4": "",
        "latbaidu": "31.160248",
        "lngbaidu": "121.23372",
        "lat": "31.1540202002",
        "lng": "121.2274621912"
    },
    {
        "id": "1008558",
        "name": "The HUB-XTD",
        "addresseng": "Hongqiao CBD, Shenhong RdMinhang District",
        "namecn": "虹桥天地一店",
        "addresscn": "上海市闵行区虹桥天地广场申长路900号2号楼一层103单元",
        "wifi": "Free WiFi",
        "description": "Most popular american coffee shop brand, Starbucks counts more than 300 shops in Shanghai. Be carefull if you want a coffee during the weekend, stabucks shops used to be crowded :)",
        "Phone": "",
        "website": "http://www.starbucks.com.cn/",
        "latte": "30 rmb",
        "open1": "Monday to Friday：07:00-20:00",
        "open2": "Saturday：08:00-18:00",
        "open3": "Sunday：Closed",
        "open4": "",
        "latbaidu": "31.203815",
        "lngbaidu": "121.320408",
        "lat": "31.1976675631",
        "lng": "121.3140687899"
    },
    {
        "id": "116439",
        "name": "HongQiao Railway Station-Dep",
        "addresseng": "Starting layer,Hongqiao Railway StationChangning District",
        "namecn": "虹桥火车站出发区店",
        "addresscn": "上海市长宁区虹桥火车站虹桥火车站出发层2F-北1，3F-C4",
        "wifi": "Free WiFi",
        "description": "Most popular american coffee shop brand, Starbucks counts more than 300 shops in Shanghai. Be carefull if you want a coffee during the weekend, stabucks shops used to be crowded :)",
        "Phone": "",
        "website": "http://www.starbucks.com.cn/",
        "latte": "30 rmb",
        "open1": "Monday to Sunday：06:30-22:00",
        "open2": "",
        "open3": "",
        "open4": "",
        "latbaidu": "31.192377",
        "lngbaidu": "121.33414",
        "lat": "31.1862084648",
        "lng": "121.3277878953"
    },
    {
        "id": "90298",
        "name": "Hongqiao Traffic Cntr-Rail Station",
        "addresseng": "B1-19, HongQiao Railway Station arrivalChangning District",
        "namecn": "虹桥火车站到达店",
        "addresscn": "上海市长宁区火车站到达区B1-19虹桥火车站到达区B1-19",
        "wifi": "Free WiFi",
        "description": "Most popular american coffee shop brand, Starbucks counts more than 300 shops in Shanghai. Be carefull if you want a coffee during the weekend, stabucks shops used to be crowded :)",
        "Phone": "",
        "website": "http://www.starbucks.com.cn/",
        "latte": "30 rmb",
        "open1": "Monday to Sunday：07:00-22:00",
        "open2": "",
        "open3": "",
        "open4": "",
        "latbaidu": "31.213301",
        "lngbaidu": "121.387616",
        "lat": "31.2071710608",
        "lng": "121.3812136805"
    },
    {
        "id": "1009405",
        "name": "SHA Hong Qiao Airport T2 - Arrival",
        "addresseng": "Arrival Level, T2, Hong Qiao AirportMinhang District",
        "namecn": "虹桥机场T2到达店",
        "addresscn": "上海市长宁区虹桥机场二号航站楼申达一路1号虹桥机场T2航站楼到达公众区0L-1号商铺",
        "wifi": "Free WiFi",
        "description": "Most popular american coffee shop brand, Starbucks counts more than 300 shops in Shanghai. Be carefull if you want a coffee during the weekend, stabucks shops used to be crowded :)",
        "Phone": "",
        "website": "http://www.starbucks.com.cn/",
        "latte": "30 rmb",
        "open1": "Monday to Sunday：Open 24 hours",
        "open2": "",
        "open3": "",
        "open4": "",
        "latbaidu": "31.207798",
        "lngbaidu": "121.333675",
        "lat": "31.2016579101",
        "lng": "121.3273233319"
    },
    {
        "id": "18962",
        "name": "SHA Hong Qiao Airport-Concourse",
        "addresseng": "No.1,Shendayi Rd,Hongqiao Airport T2Changning district",
        "namecn": "虹桥西航站店",
        "addresscn": "上海市长宁区虹桥机场T2候机楼C3-M2-S28申达一路1号",
        "wifi": "Free WiFi",
        "description": "Most popular american coffee shop brand, Starbucks counts more than 300 shops in Shanghai. Be carefull if you want a coffee during the weekend, stabucks shops used to be crowded :)",
        "Phone": "",
        "website": "http://www.starbucks.com.cn/",
        "latte": "30 rmb",
        "open1": "Monday to Sunday：06:00-22:00",
        "open2": "",
        "open3": "",
        "open4": "",
        "latbaidu": "31.207798",
        "lngbaidu": "121.333675",
        "lat": "31.2016579101",
        "lng": "121.3273233319"
    },
    {
        "id": "19247",
        "name": "SHA-Hong Qiao Airport-Departure Bay",
        "addresseng": "No.1,Shen Da Yi Rd,T2,Hongqiao AirportChangning DistrictSHA-Hong Qiao Airport",
        "namecn": "虹桥西航站二店",
        "addresscn": "上海市长宁区虹桥机场T2航站楼12.15米层B5-3-S1申达一路1号",
        "wifi": "Free WiFi",
        "description": "Most popular american coffee shop brand, Starbucks counts more than 300 shops in Shanghai. Be carefull if you want a coffee during the weekend, stabucks shops used to be crowded :)",
        "Phone": "",
        "website": "http://www.starbucks.com.cn/",
        "latte": "30 rmb",
        "open1": "Monday to Sunday：Open 24 hours",
        "open2": "",
        "open3": "",
        "open4": "",
        "latbaidu": "31.207798",
        "lngbaidu": "121.333675",
        "lat": "31.2016579101",
        "lng": "121.3273233319"
    },
    {
        "id": "1534",
        "name": "Qi Xin",
        "addresseng": "No.3655,Qixin RdMinhang District",
        "namecn": "七莘路店",
        "addresscn": "上海市闵行区凯德七宝购物广场七莘路3655号",
        "wifi": "Free WiFi",
        "description": "Most popular american coffee shop brand, Starbucks counts more than 300 shops in Shanghai. Be carefull if you want a coffee during the weekend, stabucks shops used to be crowded :)",
        "Phone": "",
        "website": "http://www.starbucks.com.cn/",
        "latte": "30 rmb",
        "open1": "Monday to Sunday：07:00-22:30",
        "open2": "",
        "open3": "",
        "open4": "",
        "latbaidu": "31.171244",
        "lngbaidu": "121.348413",
        "lat": "31.1650364832",
        "lng": "121.3420474927"
    },
    {
        "id": "1011481",
        "name": "SHA Hong Qiao Airport T1-Departure",
        "addresseng": "No.1 Shenda Yi RdChangning District",
        "namecn": "虹桥机场T1出发店",
        "addresscn": "上海市长宁区虹桥机场一号航站楼迎宾一路800号T1航站楼出发公众区B2-20店铺",
        "wifi": "Free WiFi",
        "description": "Most popular american coffee shop brand, Starbucks counts more than 300 shops in Shanghai. Be carefull if you want a coffee during the weekend, stabucks shops used to be crowded :)",
        "Phone": "",
        "website": "http://www.starbucks.com.cn/",
        "latte": "30 rmb",
        "open1": "Monday to Sunday：05:30-21:30",
        "open2": "",
        "open3": "",
        "open4": "",
        "latbaidu": "31.200045",
        "lngbaidu": "121.353278",
        "lat": "31.1938906091",
        "lng": "121.3469079244"
    },
    {
        "id": "1008541",
        "name": "Songjiang Wanda Plaza",
        "addresseng": "Line.658 Guangfulin RdSongjiang",
        "namecn": "松江万达广场店",
        "addresscn": "上海市松江区万达广场广富林路658号1031-1032号单元",
        "wifi": "Free WiFi",
        "description": "Most popular american coffee shop brand, Starbucks counts more than 300 shops in Shanghai. Be carefull if you want a coffee during the weekend, stabucks shops used to be crowded :)",
        "Phone": "",
        "website": "http://www.starbucks.com.cn/",
        "latte": "30 rmb",
        "open1": "Monday to Sunday：10:00-22:00",
        "open2": "",
        "open3": "",
        "open4": "",
        "latbaidu": "31.065838",
        "lngbaidu": "121.228805",
        "lat": "31.0594360532",
        "lng": "121.2225518065"
    },
    {
        "id": "1845",
        "name": "Mediterranean Sea",
        "addresseng": "No.1-000 Xinsongjiang RdSongJiang DistrictKaiyuan Plaza",
        "namecn": "松江开元店",
        "addresscn": "上海市松江区地中海商业广场1层1-000号新松江路925弄",
        "wifi": "Free WiFi",
        "description": "Most popular american coffee shop brand, Starbucks counts more than 300 shops in Shanghai. Be carefull if you want a coffee during the weekend, stabucks shops used to be crowded :)",
        "Phone": "",
        "website": "http://www.starbucks.com.cn/",
        "latte": "30 rmb",
        "open1": "Monday to Sunday：07:00-23:00",
        "open2": "",
        "open3": "",
        "open4": "",
        "latbaidu": "31.044505",
        "lngbaidu": "121.227783",
        "lat": "31.0380637027",
        "lng": "121.2215307661"
    },
    {
        "id": "1006498",
        "name": "No.2 Mediterranean Sea",
        "addresseng": "Lane.925 Xinsongjiang Rd",
        "namecn": "松江开元二店",
        "addresscn": "上海市松江区一层1168室1169室1176室新松江路925弄开元地中海商业广场",
        "wifi": "Free WiFi",
        "description": "Most popular american coffee shop brand, Starbucks counts more than 300 shops in Shanghai. Be carefull if you want a coffee during the weekend, stabucks shops used to be crowded :)",
        "Phone": "",
        "website": "http://www.starbucks.com.cn/",
        "latte": "30 rmb",
        "open1": "Monday to Sunday：08:00-22:00",
        "open2": "",
        "open3": "",
        "open4": "",
        "latbaidu": "31.044706",
        "lngbaidu": "121.22468",
        "lat": "31.0382650735",
        "lng": "121.2184306799"
    },
    {
        "id": "1005661",
        "name": "East Plaza",
        "addresseng": "No.219 Song Dong RoadSongjiang District",
        "namecn": "松江颐思殿广场店",
        "addresscn": "上海市松江区颐思殿广场松东路219号1F",
        "wifi": "Free WiFi",
        "description": "Most popular american coffee shop brand, Starbucks counts more than 300 shops in Shanghai. Be carefull if you want a coffee during the weekend, stabucks shops used to be crowded :)",
        "Phone": "",
        "website": "http://www.starbucks.com.cn/",
        "latte": "30 rmb",
        "open1": "Monday to Sunday：07:00-22:00",
        "open2": "",
        "open3": "",
        "open4": "",
        "latbaidu": "31.021702",
        "lngbaidu": "121.262305",
        "lat": "31.0152186407",
        "lng": "121.2560203494"
    },
    {
        "id": "1008442",
        "name": "Innovative Life Plaza",
        "addresseng": "Ground Floor,Building 32,No.328,Xin Zhua",
        "namecn": "松江创新生活广场店",
        "addresscn": "上海市松江区莘砖公路328号32栋楼创新广场第1层",
        "wifi": "Free WiFi",
        "description": "Most popular american coffee shop brand, Starbucks counts more than 300 shops in Shanghai. Be carefull if you want a coffee during the weekend, stabucks shops used to be crowded :)",
        "Phone": "",
        "website": "http://www.starbucks.com.cn/",
        "latte": "30 rmb",
        "open1": "Monday to Sunday：07:00-22:00",
        "open2": "",
        "open3": "",
        "open4": "",
        "latbaidu": "31.098321",
        "lngbaidu": "121.335784",
        "lat": "31.0919789708",
        "lng": "121.3294303516"
    },
    {
        "id": "113546",
        "name": "LOHSA",
        "addresseng": "No.568, Songhuizhong Rd.Song jiang District",
        "namecn": "松江乐颂坊店",
        "addresscn": "上海市松江区乐颂坊松汇中路568号B座",
        "wifi": "Free WiFi",
        "description": "Most popular american coffee shop brand, Starbucks counts more than 300 shops in Shanghai. Be carefull if you want a coffee during the weekend, stabucks shops used to be crowded :)",
        "Phone": "",
        "website": "http://www.starbucks.com.cn/",
        "latte": "30 rmb",
        "open1": "Monday to Thursday：07:00-22:00",
        "open2": "Friday：07:00-22:30",
        "open3": "Saturday：08:00-22:30",
        "open4": "Sunday：08:00-22:00",
        "latbaidu": "31.011533",
        "lngbaidu": "121.240764",
        "lat": "31.0050308831",
        "lng": "121.2344995768"
    },
    {
        "id": "68269",
        "name": "Min Hang Plaza",
        "addresseng": "No.6088,Huming RdMinhang district",
        "namecn": "莘庄龙之梦店",
        "addresscn": "上海市闵行区莘庄凯德龙之梦1楼01-27号沪闵路6088号",
        "wifi": "Free WiFi",
        "description": "Most popular american coffee shop brand, Starbucks counts more than 300 shops in Shanghai. Be carefull if you want a coffee during the weekend, stabucks shops used to be crowded :)",
        "Phone": "",
        "website": "http://www.starbucks.com.cn/",
        "latte": "30 rmb",
        "open1": "Monday to Sunday：08:00-22:00",
        "open2": "",
        "open3": "",
        "open4": "",
        "latbaidu": "31.113601",
        "lngbaidu": "121.385933",
        "lat": "31.107287156",
        "lng": "121.3795322609"
    },
    {
        "id": "1009931",
        "name": "Minhang Plaza - Office Lobby",
        "addresseng": "No.6088 HuMin Road (1F01-1F02)Minhang District",
        "namecn": "莘庄龙之梦2店",
        "addresscn": "上海市闵行区沪闵路6088号1层01-02号",
        "wifi": "Free WiFi",
        "description": "Most popular american coffee shop brand, Starbucks counts more than 300 shops in Shanghai. Be carefull if you want a coffee during the weekend, stabucks shops used to be crowded :)",
        "Phone": "",
        "website": "http://www.starbucks.com.cn/",
        "latte": "30 rmb",
        "open1": "Monday to Sunday：07:00-22:00",
        "open2": "",
        "open3": "",
        "open4": "",
        "latbaidu": "31.114572",
        "lngbaidu": "121.385192",
        "lat": "31.1082599471",
        "lng": "121.3787919567"
    },
    {
        "id": "1006117",
        "name": "Huibao Plaza",
        "addresseng": "No.3459,Caobao Rd.MinHang District",
        "namecn": "汇宝广场店",
        "addresscn": "上海市闵行区汇宝广场漕宝路3459号1C2-03",
        "wifi": "Free WiFi",
        "description": "Most popular american coffee shop brand, Starbucks counts more than 300 shops in Shanghai. Be carefull if you want a coffee during the weekend, stabucks shops used to be crowded :)",
        "Phone": "",
        "website": "http://www.starbucks.com.cn/",
        "latte": "30 rmb",
        "open1": "Monday to Thursday：07:00-22:00",
        "open2": "Friday to Sunday：07:00-22:30",
        "open3": "",
        "open4": "",
        "latbaidu": "31.162578",
        "lngbaidu": "121.356861",
        "lat": "31.1563544981",
        "lng": "121.3504875599"
    },
    {
        "id": "1005418",
        "name": "Shang DuLi",
        "addresseng": "No.268., Xinfeng Rd.Qingpu District",
        "namecn": "#N/A",
        "addresscn": "上海市青浦区新丰路268号",
        "wifi": "Free WiFi",
        "description": "Most popular american coffee shop brand, Starbucks counts more than 300 shops in Shanghai. Be carefull if you want a coffee during the weekend, stabucks shops used to be crowded :)",
        "Phone": "",
        "website": "http://www.starbucks.com.cn/",
        "latte": "30 rmb",
        "open1": "Monday to Sunday：09:30-21:30",
        "open2": "",
        "open3": "",
        "open4": "",
        "latbaidu": "31.130862",
        "lngbaidu": "121.091425",
        "lat": "31.1245799953",
        "lng": "121.0853008083"
    },
    {
        "id": "1011522",
        "name": "JinShan Industrial Park",
        "addresseng": "Lane 818 NO 79 XiaNing RoadJin Shan district",
        "namecn": "金山工业园区店",
        "addresscn": "上海市金山区夏宁路818弄70号1层",
        "wifi": "Free WiFi",
        "description": "Most popular american coffee shop brand, Starbucks counts more than 300 shops in Shanghai. Be carefull if you want a coffee during the weekend, stabucks shops used to be crowded :)",
        "Phone": "",
        "website": "http://www.starbucks.com.cn/",
        "latte": "30 rmb",
        "open1": "Monday to Friday：07:00-19:00",
        "open2": "Saturday to Sunday：08:00-18:00",
        "open3": "",
        "open4": "",
        "latbaidu": "30.832769",
        "lngbaidu": "121.324655",
        "lat": "30.8259371382",
        "lng": "121.3183118019"
    },
    {
        "id": "1011167",
        "name": "YiJia Plaza",
        "addresseng": "Unit3-101, No.230 Chenghe RdJinshan District",
        "namecn": "易家中心店",
        "addresscn": "上海市金山区易家中心城河路230号3-101单元",
        "wifi": "Free WiFi",
        "description": "Most popular american coffee shop brand, Starbucks counts more than 300 shops in Shanghai. Be carefull if you want a coffee during the weekend, stabucks shops used to be crowded :)",
        "Phone": "",
        "website": "http://www.starbucks.com.cn/",
        "latte": "30 rmb",
        "open1": "Monday to Sunday：07:00-22:00",
        "open2": "",
        "open3": "",
        "open4": "",
        "latbaidu": "30.737114",
        "lngbaidu": "121.335143",
        "lat": "30.7301056947",
        "lng": "121.3287899535"
    },
    {
        "id": "19241",
        "name": "Jin Shan Shopping Mall - G/F",
        "addresseng": "No.18, West Weiqing RoadJinshan District",
        "namecn": "金山百联店",
        "addresscn": "上海市金山区金山百联卫清西路18号B101",
        "wifi": "Free WiFi",
        "description": "Most popular american coffee shop brand, Starbucks counts more than 300 shops in Shanghai. Be carefull if you want a coffee during the weekend, stabucks shops used to be crowded :)",
        "Phone": "",
        "website": "http://www.starbucks.com.cn/",
        "latte": "30 rmb",
        "open1": "Monday to Sunday：08:00-22:00",
        "open2": "",
        "open3": "",
        "open4": "",
        "latbaidu": "30.737127",
        "lngbaidu": "121.357824",
        "lat": "30.7301187187",
        "lng": "121.3514496557"
    },
    {
        "id": "113898",
        "name": "Bai Lian Nan Qiao Shopping Mall",
        "addresseng": "No.588 Bai Qi RoadFengxian Disctrict",
        "namecn": "奉贤南桥百联店",
        "addresscn": "上海市奉贤区百联南桥购物中心一楼南桥镇百齐路588号",
        "wifi": "Free WiFi",
        "description": "Most popular american coffee shop brand, Starbucks counts more than 300 shops in Shanghai. Be carefull if you want a coffee during the weekend, stabucks shops used to be crowded :)",
        "Phone": "",
        "website": "http://www.starbucks.com.cn/",
        "latte": "30 rmb",
        "open1": "Monday to Thursday：10:30-21:30",
        "open2": "Friday to Sunday：10:30-22:00",
        "open3": "",
        "open4": "",
        "latbaidu": "30.921796",
        "lngbaidu": "121.490287",
        "lat": "30.9151283559",
        "lng": "121.4837882709"
    },
    {
        "id": "1006536",
        "name": "Nanqiao New City Life Plaza",
        "addresseng": "No.681-707 E. Huancheng Rd.",
        "namecn": "南桥新都汇店",
        "addresscn": "上海市奉贤区环城东路681-707(单号)C-1-11",
        "wifi": "Free WiFi",
        "description": "Most popular american coffee shop brand, Starbucks counts more than 300 shops in Shanghai. Be carefull if you want a coffee during the weekend, stabucks shops used to be crowded :)",
        "Phone": "",
        "website": "http://www.starbucks.com.cn/",
        "latte": "30 rmb",
        "open1": "Monday to Sunday：07:00-22:00",
        "open2": "",
        "open3": "",
        "open4": "",
        "latbaidu": "30.941033",
        "lngbaidu": "121.469006",
        "lat": "30.9344008401",
        "lng": "121.4625272541"
    },
    {
        "id": "1009586",
        "name": "Minhang Life Plaza",
        "addresseng": "No.900 Heqing RdMinhang District",
        "namecn": "老闵行生活广场店",
        "addresscn": "上海市闵行区老闵行生活广场鹤庆路900号A4单元",
        "wifi": "Free WiFi",
        "description": "Most popular american coffee shop brand, Starbucks counts more than 300 shops in Shanghai. Be carefull if you want a coffee during the weekend, stabucks shops used to be crowded :)",
        "Phone": "",
        "website": "http://www.starbucks.com.cn/",
        "latte": "30 rmb",
        "open1": "Monday to Thursday：07:00-22:00",
        "open2": "Friday to Saturday：07:00-23:00",
        "open3": "Sunday：07:00-22:00",
        "open4": "",
        "latbaidu": "31.013183",
        "lngbaidu": "121.411237",
        "lat": "31.0066839267",
        "lng": "121.4048125"
    },
    {
        "id": "1839",
        "name": "Max Mall",
        "addresseng": "No.1500,Lianhua RdMinhang District",
        "namecn": "新都会店",
        "addresscn": "上海市闵行区梅陇镇新都会15-B单元莲花南路1500号",
        "wifi": "Free WiFi",
        "description": "Most popular american coffee shop brand, Starbucks counts more than 300 shops in Shanghai. Be carefull if you want a coffee during the weekend, stabucks shops used to be crowded :)",
        "Phone": "",
        "website": "http://www.starbucks.com.cn/",
        "latte": "30 rmb",
        "open1": "Monday to Friday：07:30-22:00",
        "open2": "Saturday to Sunday：08:00-22:00",
        "open3": "",
        "open4": "",
        "latbaidu": "31.104056",
        "lngbaidu": "121.419052",
        "lat": "31.0977245494",
        "lng": "121.4126201616"
    },
    {
        "id": "19159",
        "name": "Sky Mall - Ground Floor",
        "addresseng": "No.5001,Dushi RdMinghang DistrictSky Mall",
        "namecn": "莘庄仲盛店",
        "addresscn": "上海市闵行区仲盛世界城都市路5001号",
        "wifi": "Free WiFi",
        "description": "Most popular american coffee shop brand, Starbucks counts more than 300 shops in Shanghai. Be carefull if you want a coffee during the weekend, stabucks shops used to be crowded :)",
        "Phone": "",
        "website": "http://www.starbucks.com.cn/",
        "latte": "30 rmb",
        "open1": "Monday to Thursday：07:00-23:00",
        "open2": "Friday to Saturday：07:00-00:00",
        "open3": "Sunday：07:00-23:00",
        "open4": "",
        "latbaidu": "31.113501",
        "lngbaidu": "121.393037",
        "lat": "31.1071869715",
        "lng": "121.3866295901"
    },
    {
        "id": "1005819",
        "name": "WanDing Road",
        "addresseng": "No.118 WanDing RoadMinhang District",
        "namecn": "畹町路店",
        "addresscn": "上海市闵行区畹町路畹町路118号-122号",
        "wifi": "Free WiFi",
        "description": "Most popular american coffee shop brand, Starbucks counts more than 300 shops in Shanghai. Be carefull if you want a coffee during the weekend, stabucks shops used to be crowded :)",
        "Phone": "",
        "website": "http://www.starbucks.com.cn/",
        "latte": "30 rmb",
        "open1": "Monday to Thursday：07:00-22:00",
        "open2": "Friday to Sunday：07:00-22:30",
        "open3": "",
        "open4": "",
        "latbaidu": "31.111679",
        "lngbaidu": "121.409417",
        "lat": "31.1053616107",
        "lng": "121.4029942091"
    },
    {
        "id": "1574",
        "name": "South Mart",
        "addresseng": "No.7388,Humin RdMinhang district",
        "namecn": "南方商城店",
        "addresscn": "上海市闵行区百联南方商城1楼沪闵路7388号",
        "wifi": "Free WiFi",
        "description": "Most popular american coffee shop brand, Starbucks counts more than 300 shops in Shanghai. Be carefull if you want a coffee during the weekend, stabucks shops used to be crowded :)",
        "Phone": "",
        "website": "http://www.starbucks.com.cn/",
        "latte": "30 rmb",
        "open1": "Monday to Thursday：07:00-23:00",
        "open2": "Friday to Saturday：07:00-00:00",
        "open3": "Sunday：07:00-23:00",
        "open4": "",
        "latbaidu": "31.137144",
        "lngbaidu": "121.407372",
        "lat": "31.130873583",
        "lng": "121.4009511293"
    },
    {
        "id": "1008508",
        "name": "Gumei Innovation Street",
        "addresseng": "No.555 Gumei RdMinhang",
        "namecn": "古美文创街店",
        "addresscn": "上海市闵行区文化创意街古美路569号1F",
        "wifi": "Free WiFi",
        "description": "Most popular american coffee shop brand, Starbucks counts more than 300 shops in Shanghai. Be carefull if you want a coffee during the weekend, stabucks shops used to be crowded :)",
        "Phone": "",
        "website": "http://www.starbucks.com.cn/",
        "latte": "30 rmb",
        "open1": "Monday to Friday：07:00-22:00",
        "open2": "Saturday to Sunday：07:00-23:00",
        "open3": "",
        "open4": "",
        "latbaidu": "31.150978",
        "lngbaidu": "121.411122",
        "lat": "31.1447331009",
        "lng": "121.404697608"
    },
    {
        "id": "1940",
        "name": "Qiaoziwan",
        "addresseng": "No.700,Gongyuan RdQingpu District",
        "namecn": "桥梓湾店",
        "addresscn": "上海市青浦区东方商厦一楼公园路700号",
        "wifi": "Free WiFi",
        "description": "Most popular american coffee shop brand, Starbucks counts more than 300 shops in Shanghai. Be carefull if you want a coffee during the weekend, stabucks shops used to be crowded :)",
        "Phone": "",
        "website": "http://www.starbucks.com.cn/",
        "latte": "30 rmb",
        "open1": "Monday to Sunday：08:00-22:00",
        "open2": "",
        "open3": "",
        "open4": "",
        "latbaidu": "31.154593",
        "lngbaidu": "121.118873",
        "lat": "31.1483547691",
        "lng": "121.1127230343"
    },
    {
        "id": "1010190",
        "name": "North Chengzhong Rd",
        "addresseng": "No.79 N.Chengzhong RdQingpu District",
        "namecn": "青浦城中北路店",
        "addresscn": "上海市青浦区城中北路79号副楼1楼、2楼",
        "wifi": "Free WiFi",
        "description": "Most popular american coffee shop brand, Starbucks counts more than 300 shops in Shanghai. Be carefull if you want a coffee during the weekend, stabucks shops used to be crowded :)",
        "Phone": "",
        "website": "http://www.starbucks.com.cn/",
        "latte": "30 rmb",
        "open1": "Monday to Sunday：07:00-22:00",
        "open2": "",
        "open3": "",
        "open4": "",
        "latbaidu": "31.154208",
        "lngbaidu": "121.117527",
        "lat": "31.1479690589",
        "lng": "121.1113782982"
    },
    {
        "id": "1011353",
        "name": "INJOY PLAZA",
        "addresseng": "1F-101 Lane.135 North CaoSui Road",
        "namecn": "青浦吾悦广场店",
        "addresscn": "上海市青浦区吾悦广场淀山湖大道152弄41号-7室",
        "wifi": "Free WiFi",
        "description": "Most popular american coffee shop brand, Starbucks counts more than 300 shops in Shanghai. Be carefull if you want a coffee during the weekend, stabucks shops used to be crowded :)",
        "Phone": "",
        "website": "http://www.starbucks.com.cn/",
        "latte": "30 rmb",
        "open1": "Monday to Sunday：07:00-22:00",
        "open2": "",
        "open3": "",
        "open4": "",
        "latbaidu": "31.147478",
        "lngbaidu": "121.102727",
        "lat": "31.1412266449",
        "lng": "121.0965921956"
    },
    {
        "id": "1009118",
        "name": "Kunshan Shimao Plaza-GF",
        "addresseng": "KunshanNo.199 East Qianjin RdDevelopment Zone",
        "namecn": "昆山世茂广场店",
        "addresscn": "昆山市开发区前进东路223号",
        "wifi": "Free WiFi",
        "description": "Most popular american coffee shop brand, Starbucks counts more than 300 shops in Shanghai. Be carefull if you want a coffee during the weekend, stabucks shops used to be crowded :)",
        "Phone": "",
        "website": "http://www.starbucks.com.cn/",
        "latte": "30 rmb",
        "open1": "Monday to Sunday：07:00-22:00",
        "open2": "",
        "open3": "",
        "open4": "",
        "latbaidu": "31.389498",
        "lngbaidu": "121.058546",
        "lat": "31.3836930707",
        "lng": "121.0524526822"
    },
    {
        "id": "1956",
        "name": "Mirama Garden",
        "addresseng": "No.85,S.Shuicheng RdChangning district",
        "namecn": "美丽华花园店",
        "addresscn": "上海市长宁区美丽华花园水城南路85号",
        "wifi": "Free WiFi",
        "description": "Most popular american coffee shop brand, Starbucks counts more than 300 shops in Shanghai. Be carefull if you want a coffee during the weekend, stabucks shops used to be crowded :)",
        "Phone": "",
        "website": "http://www.starbucks.com.cn/",
        "latte": "30 rmb",
        "open1": "Monday to Sunday：07:00-22:00",
        "open2": "",
        "open3": "",
        "open4": "",
        "latbaidu": "31.20406",
        "lngbaidu": "121.399063",
        "lat": "31.197913015",
        "lng": "121.3926499316"
    },
    {
        "id": "1717",
        "name": "Gubei",
        "addresseng": "No.20, Shuicheng nan RoadChangning district",
        "namecn": "古北店",
        "addresscn": "上海市长宁区古北水城南路20号",
        "wifi": "Free WiFi",
        "description": "Most popular american coffee shop brand, Starbucks counts more than 300 shops in Shanghai. Be carefull if you want a coffee during the weekend, stabucks shops used to be crowded :)",
        "Phone": "",
        "website": "http://www.starbucks.com.cn/",
        "latte": "30 rmb",
        "open1": "Monday to Sunday：06:30-22:30",
        "open2": "",
        "open3": "",
        "open4": "",
        "latbaidu": "31.199513",
        "lngbaidu": "121.400992",
        "lat": "31.1933576277",
        "lng": "121.3945771203"
    },
    {
        "id": "1008380",
        "name": "Star Life",
        "addresseng": "No.1665 Hongqiao Rd",
        "namecn": "星空广场店",
        "addresscn": "上海市长宁区星空生活广场虹桥路1665号A-104、A-105单元",
        "wifi": "Free WiFi",
        "description": "Most popular american coffee shop brand, Starbucks counts more than 300 shops in Shanghai. Be carefull if you want a coffee during the weekend, stabucks shops used to be crowded :)",
        "Phone": "",
        "website": "http://www.starbucks.com.cn/",
        "latte": "30 rmb",
        "open1": "Monday to Sunday：07:00-22:00",
        "open2": "",
        "open3": "",
        "open4": "",
        "latbaidu": "31.205661",
        "lngbaidu": "121.399423",
        "lat": "31.1995169682",
        "lng": "121.3930095936"
    },
    {
        "id": "68785",
        "name": "Dawning Center Tower",
        "addresseng": "No. 500, Hongbaoshi RoadChangning districtDawning Center Tower",
        "namecn": "东银中心店",
        "addresscn": "上海市长宁区东银中心红宝石路500号1F-106",
        "wifi": "Free WiFi",
        "description": "Most popular american coffee shop brand, Starbucks counts more than 300 shops in Shanghai. Be carefull if you want a coffee during the weekend, stabucks shops used to be crowded :)",
        "Phone": "",
        "website": "http://www.starbucks.com.cn/",
        "latte": "30 rmb",
        "open1": "Monday to Friday：07:00-20:00",
        "open2": "Saturday to Sunday：08:00-17:00",
        "open3": "",
        "open4": "",
        "latbaidu": "31.20414",
        "lngbaidu": "121.406657",
        "lat": "31.1979931626",
        "lng": "121.4002368007"
    },
    {
        "id": "1569",
        "name": "Hongmei",
        "addresseng": "No.3188-1,Hongmei RdChangning District",
        "namecn": "虹梅路店",
        "addresscn": "上海市长宁区虹梅路虹梅路3188－1号",
        "wifi": "Free WiFi",
        "description": "Most popular american coffee shop brand, Starbucks counts more than 300 shops in Shanghai. Be carefull if you want a coffee during the weekend, stabucks shops used to be crowded :)",
        "Phone": "",
        "website": "http://www.starbucks.com.cn/",
        "latte": "30 rmb",
        "open1": "Monday to Sunday：07:00-22:30",
        "open2": "",
        "open3": "",
        "open4": "",
        "latbaidu": "31.1937",
        "lngbaidu": "121.394055",
        "lat": "31.1875339052",
        "lng": "121.3876466342"
    },
    {
        "id": "116319",
        "name": "GIFC II",
        "addresseng": "No.1438 HongQiao Roadchangning District",
        "namecn": "玛瑙路店",
        "addresscn": "上海市长宁区高岛屋虹桥路1438号",
        "wifi": "Free WiFi",
        "description": "Most popular american coffee shop brand, Starbucks counts more than 300 shops in Shanghai. Be carefull if you want a coffee during the weekend, stabucks shops used to be crowded :)",
        "Phone": "",
        "website": "http://www.starbucks.com.cn/",
        "latte": "30 rmb",
        "open1": "Monday to Friday：07:00-20:00",
        "open2": "Saturday to Sunday：08:30-19:00",
        "open3": "",
        "open4": "",
        "latbaidu": "31.204279",
        "lngbaidu": "121.409522",
        "lat": "31.198132419",
        "lng": "121.4030991105"
    },
    {
        "id": "1572",
        "name": "mart",
        "addresseng": "No.2299,W.Yanan RdChangning district",
        "namecn": "世贸商城店",
        "addresscn": "上海市长宁区世贸商城延安西路2299号",
        "wifi": "Free WiFi",
        "description": "Most popular american coffee shop brand, Starbucks counts more than 300 shops in Shanghai. Be carefull if you want a coffee during the weekend, stabucks shops used to be crowded :)",
        "Phone": "",
        "website": "http://www.starbucks.com.cn/",
        "latte": "30 rmb",
        "open1": "Monday to Friday：07:00-19:30",
        "open2": "Saturday：08:00-17:00",
        "open3": "Sunday：08:00-15:00",
        "open4": "",
        "latbaidu": "31.207405",
        "lngbaidu": "121.407534",
        "lat": "31.2012641852",
        "lng": "121.4011129772"
    },
    {
        "id": "1886",
        "name": "Hongqiao Bus Ctr-Changning Dst",
        "addresseng": "No 2270 Hongqiao RdChangning district",
        "namecn": "虹桥万豪店",
        "addresscn": "上海市长宁区万豪大酒店A段101-1虹桥路2270",
        "wifi": "Free WiFi",
        "description": "Most popular american coffee shop brand, Starbucks counts more than 300 shops in Shanghai. Be carefull if you want a coffee during the weekend, stabucks shops used to be crowded :)",
        "Phone": "",
        "website": "http://www.starbucks.com.cn/",
        "latte": "30 rmb",
        "open1": "Monday to Sunday：06:30-21:30",
        "open2": "",
        "open3": "",
        "open4": "",
        "latbaidu": "31.197129",
        "lngbaidu": "121.383374",
        "lat": "31.1909692302",
        "lng": "121.3769756638"
    },
    {
        "id": "94737",
        "name": "V-Capital",
        "addresseng": "No.333 Xian Xia Roadchangning district",
        "namecn": "东方维京大厦店",
        "addresscn": "上海市长宁区东方维京大厦仙霞路333号1层S105单元",
        "wifi": "Free WiFi",
        "description": "Most popular american coffee shop brand, Starbucks counts more than 300 shops in Shanghai. Be carefull if you want a coffee during the weekend, stabucks shops used to be crowded :)",
        "Phone": "",
        "website": "http://www.starbucks.com.cn/",
        "latte": "30 rmb",
        "open1": "Monday to Friday：07:00-20:00",
        "open2": "Saturday：08:00-16:00",
        "open3": "Sunday：Closed",
        "open4": "",
        "latbaidu": "31.211836",
        "lngbaidu": "121.405441",
        "lat": "31.2057033585",
        "lng": "121.3990219426"
    },
    {
        "id": "1716",
        "name": "Far Eastern Plaza",
        "addresseng": "No. 299 Xianxia RoadChangning districtFar East International Building",
        "namecn": "远东国际店",
        "addresscn": "上海市长宁区远东国际大厦仙霞路299号",
        "wifi": "Free WiFi",
        "description": "Most popular american coffee shop brand, Starbucks counts more than 300 shops in Shanghai. Be carefull if you want a coffee during the weekend, stabucks shops used to be crowded :)",
        "Phone": "",
        "website": "http://www.starbucks.com.cn/",
        "latte": "30 rmb",
        "open1": "Monday to Friday：07:00-20:00",
        "open2": "Saturday to Sunday：07:00-18:00",
        "open3": "",
        "open4": "",
        "latbaidu": "31.212134",
        "lngbaidu": "121.408564",
        "lat": "31.2060019082",
        "lng": "121.40214201"
    },
    {
        "id": "1009412",
        "name": " Film Museum",
        "addresseng": "No.595 North Caoxi RdXuhui District",
        "namecn": "上影博物馆店",
        "addresscn": "上海市徐汇区上海电影博物馆漕溪北路595号",
        "wifi": "Free WiFi",
        "description": "Most popular american coffee shop brand, Starbucks counts more than 300 shops in Shanghai. Be carefull if you want a coffee during the weekend, stabucks shops used to be crowded :)",
        "Phone": "",
        "website": "http://www.starbucks.com.cn/",
        "latte": "30 rmb",
        "open1": "Monday to Sunday：07:00-22:00",
        "open2": "",
        "open3": "",
        "open4": "",
        "latbaidu": "31.192743",
        "lngbaidu": "121.444249",
        "lat": "31.1865751399",
        "lng": "121.4377935013"
    },
    {
        "id": "88354",
        "name": "Hongwell International Plaza-GF",
        "addresseng": "No.1602,W.Zhongshan RdXuhui District",
        "namecn": "宏汇国际广场店",
        "addresscn": "上海市徐汇区宏汇国际广场中山西路1602号1层02室",
        "wifi": "Free WiFi",
        "description": "Most popular american coffee shop brand, Starbucks counts more than 300 shops in Shanghai. Be carefull if you want a coffee during the weekend, stabucks shops used to be crowded :)",
        "Phone": "",
        "website": "http://www.starbucks.com.cn/",
        "latte": "30 rmb",
        "open1": "Monday to Friday：07:00-19:30",
        "open2": "Saturday to Sunday：08:00-17:00",
        "open3": "",
        "open4": "",
        "latbaidu": "31.193127",
        "lngbaidu": "121.428184",
        "lat": "31.1869598482",
        "lng": "121.4217435866"
    },
    {
        "id": "1009374",
        "name": "Foxtown international plaza",
        "addresseng": "No.899 Lingling RdXuhui District",
        "namecn": "飞洲国际广场店",
        "addresscn": "上海市徐汇区飞洲国际广场零陵路889号",
        "wifi": "Free WiFi",
        "description": "Most popular american coffee shop brand, Starbucks counts more than 300 shops in Shanghai. Be carefull if you want a coffee during the weekend, stabucks shops used to be crowded :)",
        "Phone": "",
        "website": "http://www.starbucks.com.cn/",
        "latte": "30 rmb",
        "open1": "Monday to Thursday：07:00-22:00",
        "open2": "Friday to Saturday：07:00-23:00",
        "open3": "Sunday：07:00-22:00",
        "open4": "",
        "latbaidu": "31.189393",
        "lngbaidu": "121.443681",
        "lat": "31.1832189606",
        "lng": "121.4372260346"
    },
    {
        "id": "1011136",
        "name": "Zhong Jin International Plaza",
        "addresseng": "No.331 N.Caoxi RoadXuhui District",
        "namecn": "中金国际广场店",
        "addresscn": "上海市徐汇区漕溪北路331号1层03",
        "wifi": "Free WiFi",
        "description": "Most popular american coffee shop brand, Starbucks counts more than 300 shops in Shanghai. Be carefull if you want a coffee during the weekend, stabucks shops used to be crowded :)",
        "Phone": "",
        "website": "http://www.starbucks.com.cn/",
        "latte": "30 rmb",
        "open1": "Monday to Friday：07:00-19:30",
        "open2": "Saturday to Sunday：08:00-18:30",
        "open3": "",
        "open4": "",
        "latbaidu": "31.197111",
        "lngbaidu": "121.445428",
        "lat": "31.190951197",
        "lng": "121.4389713942"
    },
    {
        "id": "1957",
        "name": " Stadium",
        "addresseng": "No.1111,Caoxi RdXuhui district",
        "namecn": "上海体育馆店",
        "addresscn": "上海市徐汇区上海体育馆1楼1号扶梯漕溪路1111号",
        "wifi": "Free WiFi",
        "description": "Most popular american coffee shop brand, Starbucks counts more than 300 shops in Shanghai. Be carefull if you want a coffee during the weekend, stabucks shops used to be crowded :)",
        "Phone": "",
        "website": "http://www.starbucks.com.cn/",
        "latte": "30 rmb",
        "open1": "Monday to Thursday：07:00-22:00",
        "open2": "Friday to Saturday：07:00-22:30",
        "open3": "Sunday：07:00-22:00",
        "open4": "",
        "latbaidu": "31.188314",
        "lngbaidu": "121.444416",
        "lat": "31.1821379703",
        "lng": "121.4379603445"
    },
    {
        "id": "1529",
        "name": "Grand Gateway",
        "addresseng": "No.1 Hong Qiao Rd.Xuhui district",
        "namecn": "港汇广场店",
        "addresscn": "上海市徐汇区港汇广场虹桥路1号168铺位",
        "wifi": "Free WiFi",
        "description": "Most popular american coffee shop brand, Starbucks counts more than 300 shops in Shanghai. Be carefull if you want a coffee during the weekend, stabucks shops used to be crowded :)",
        "Phone": "",
        "website": "http://www.starbucks.com.cn/",
        "latte": "30 rmb",
        "open1": "Monday to Friday：07:00-23:00",
        "open2": "Saturday to Sunday：08:30-23:00",
        "open3": "",
        "open4": "",
        "latbaidu": "31.200249",
        "lngbaidu": "121.443811",
        "lat": "31.1940949853",
        "lng": "121.4373559126"
    },
    {
        "id": "1008352",
        "name": "Ming Shi Garden",
        "addresseng": "No.98 West GuangYuan Road",
        "namecn": "名仕苑店",
        "addresscn": "上海市徐汇区广元西路98号3-4室",
        "wifi": "Free WiFi",
        "description": "Most popular american coffee shop brand, Starbucks counts more than 300 shops in Shanghai. Be carefull if you want a coffee during the weekend, stabucks shops used to be crowded :)",
        "Phone": "",
        "website": "http://www.starbucks.com.cn/",
        "latte": "30 rmb",
        "open1": "Monday to Sunday：07:00-22:00",
        "open2": "",
        "open3": "",
        "open4": "",
        "latbaidu": "31.202468",
        "lngbaidu": "121.440876",
        "lat": "31.1963180785",
        "lng": "121.4344236686"
    },
    {
        "id": "1006318",
        "name": "Grand Gateway 2",
        "addresseng": "No.1 Hongqiao RoadXuhui District",
        "namecn": "港汇2店",
        "addresscn": "上海市徐汇区虹桥路1号101铺位",
        "wifi": "Free WiFi",
        "description": "Most popular american coffee shop brand, Starbucks counts more than 300 shops in Shanghai. Be carefull if you want a coffee during the weekend, stabucks shops used to be crowded :)",
        "Phone": "",
        "website": "http://www.starbucks.com.cn/",
        "latte": "30 rmb",
        "open1": "Monday to Sunday：07:00-22:00",
        "open2": "",
        "open3": "",
        "open4": "",
        "latbaidu": "31.200249",
        "lngbaidu": "121.443811",
        "lat": "31.1940949853",
        "lng": "121.4373559126"
    },
    {
        "id": "1708",
        "name": "Metro City - 2nd Floor",
        "addresseng": "No.1111,Zhaojiabang RdXuhui district",
        "namecn": "美罗城店",
        "addresscn": "上海市徐汇区美罗城肇家浜路1111号219单元",
        "wifi": "Free WiFi",
        "description": "Most popular american coffee shop brand, Starbucks counts more than 300 shops in Shanghai. Be carefull if you want a coffee during the weekend, stabucks shops used to be crowded :)",
        "Phone": "",
        "website": "http://www.starbucks.com.cn/",
        "latte": "30 rmb",
        "open1": "Monday to Sunday：10:00-22:00",
        "open2": "",
        "open3": "",
        "open4": "",
        "latbaidu": "31.200123",
        "lngbaidu": "121.44594",
        "lat": "31.1939687529",
        "lng": "121.4394829134"
    },
    {
        "id": "68396",
        "name": "Grand Gateway Office Lobby",
        "addresseng": "No.1 Hong Qiao LuXuhui District",
        "namecn": "港汇3店",
        "addresscn": "上海市徐汇区港汇广场办公楼一座大堂虹桥路1号",
        "wifi": "Free WiFi",
        "description": "Most popular american coffee shop brand, Starbucks counts more than 300 shops in Shanghai. Be carefull if you want a coffee during the weekend, stabucks shops used to be crowded :)",
        "Phone": "",
        "website": "http://www.starbucks.com.cn/",
        "latte": "30 rmb",
        "open1": "Monday to Friday：07:00-19:30",
        "open2": "Saturday：08:00-18:00",
        "open3": "Sunday：08:30-18:00",
        "open4": "",
        "latbaidu": "31.200249",
        "lngbaidu": "121.443811",
        "lat": "31.1940949853",
        "lng": "121.4373559126"
    },
    {
        "id": "91309",
        "name": "New Huaihai Fang",
        "addresseng": "No.676, Huaihai West RoadChangning District",
        "namecn": "新淮海坊店",
        "addresscn": "上海市长宁区新淮海坊海西路676号1层01室",
        "wifi": "Free WiFi",
        "description": "Most popular american coffee shop brand, Starbucks counts more than 300 shops in Shanghai. Be carefull if you want a coffee during the weekend, stabucks shops used to be crowded :)",
        "Phone": "",
        "website": "http://www.starbucks.com.cn/",
        "latte": "30 rmb",
        "open1": "Monday to Thursday：07:00-22:00",
        "open2": "Friday to Saturday：07:00-22:30",
        "open3": "Sunday：07:00-22:00",
        "open4": "",
        "latbaidu": "31.213301",
        "lngbaidu": "121.387616",
        "lat": "31.2071710608",
        "lng": "121.3812136805"
    },
    {
        "id": "1837",
        "name": " Film Centre",
        "addresseng": "No.160,Xinhua RdChangning District",
        "namecn": "上海影城店",
        "addresscn": "上海市长宁区上海影城底层001号商铺新华路160号",
        "wifi": "Free WiFi",
        "description": "Most popular american coffee shop brand, Starbucks counts more than 300 shops in Shanghai. Be carefull if you want a coffee during the weekend, stabucks shops used to be crowded :)",
        "Phone": "",
        "website": "http://www.starbucks.com.cn/",
        "latte": "30 rmb",
        "open1": "Monday to Sunday：08:00-22:00",
        "open2": "",
        "open3": "",
        "open4": "",
        "latbaidu": "31.208622",
        "lngbaidu": "121.436052",
        "lat": "31.20248343",
        "lng": "121.4296041984"
    },
    {
        "id": "1937",
        "name": "Xin Hua",
        "addresseng": "No.519,Xinhua RdChangning district",
        "namecn": "新华店",
        "addresscn": "上海市长宁区新华路新华路519号1B室",
        "wifi": "Free WiFi",
        "description": "Most popular american coffee shop brand, Starbucks counts more than 300 shops in Shanghai. Be carefull if you want a coffee during the weekend, stabucks shops used to be crowded :)",
        "Phone": "",
        "website": "http://www.starbucks.com.cn/",
        "latte": "30 rmb",
        "open1": "Monday to Sunday：07:00-22:00",
        "open2": "",
        "open3": "",
        "open4": "",
        "latbaidu": "31.210436",
        "lngbaidu": "121.429367",
        "lat": "31.2043007761",
        "lng": "121.4229254757"
    },
    {
        "id": "1008418",
        "name": "HENG SHAN FANG",
        "addresseng": "No.890-1 Heng Shan RoadXuhui District",
        "namecn": "衡山坊店",
        "addresscn": "上海市徐汇区衡山坊衡山路890弄3号",
        "wifi": "Free WiFi",
        "description": "Most popular american coffee shop brand, Starbucks counts more than 300 shops in Shanghai. Be carefull if you want a coffee during the weekend, stabucks shops used to be crowded :)",
        "Phone": "",
        "website": "http://www.starbucks.com.cn/",
        "latte": "30 rmb",
        "open1": "Monday to Thursday：07:00-22:00",
        "open2": "Friday：07:00-22:30",
        "open3": "Saturday to Sunday：07:00-22:00",
        "open4": "",
        "latbaidu": "31.202203",
        "lngbaidu": "121.445982",
        "lat": "31.1960525897",
        "lng": "121.439524874"
    },
    {
        "id": "1900",
        "name": "Friendship West",
        "addresseng": "No.88 West Xianxia RoadChangning District",
        "namecn": "西郊友谊店",
        "addresscn": "上海市长宁区百联西郊购物中心仙霞西路88号",
        "wifi": "Free WiFi",
        "description": "Most popular american coffee shop brand, Starbucks counts more than 300 shops in Shanghai. Be carefull if you want a coffee during the weekend, stabucks shops used to be crowded :)",
        "Phone": "",
        "website": "http://www.starbucks.com.cn/",
        "latte": "30 rmb",
        "open1": "Monday to Thursday：07:00-22:00",
        "open2": "Friday to Saturday：07:00-22:30",
        "open3": "Sunday：07:00-22:00",
        "open4": "",
        "latbaidu": "31.213917",
        "lngbaidu": "121.37758",
        "lat": "31.2077881971",
        "lng": "121.3711871045"
    },
    {
        "id": "91318",
        "name": "President Business Building",
        "addresseng": "No.568, Tianshan West RoadChangning District",
        "namecn": "统一企业大厦店",
        "addresscn": "上海市长宁区统一企业大厦天山西路568号1幢105-106",
        "wifi": "Free WiFi",
        "description": "Most popular american coffee shop brand, Starbucks counts more than 300 shops in Shanghai. Be carefull if you want a coffee during the weekend, stabucks shops used to be crowded :)",
        "Phone": "",
        "website": "http://www.starbucks.com.cn/",
        "latte": "30 rmb",
        "open1": "Monday to Sunday：07:00-21:30",
        "open2": "",
        "open3": "",
        "open4": "",
        "latbaidu": "31.224894",
        "lngbaidu": "121.367075",
        "lat": "31.2187854451",
        "lng": "121.3606919688"
    },
    {
        "id": "1009406",
        "name": "Bingo Plaza",
        "addresseng": "No.341 Tianshan RdChangning District",
        "namecn": "缤谷广场店",
        "addresscn": "上海市长宁区天山路342号缤谷广场一层",
        "wifi": "Free WiFi",
        "description": "Most popular american coffee shop brand, Starbucks counts more than 300 shops in Shanghai. Be carefull if you want a coffee during the weekend, stabucks shops used to be crowded :)",
        "Phone": "",
        "website": "http://www.starbucks.com.cn/",
        "latte": "30 rmb",
        "open1": "Monday to Thursday：07:00-22:00",
        "open2": "Friday to Saturday：07:00-22:30",
        "open3": "Sunday：07:00-22:00",
        "open4": "",
        "latbaidu": "31.220181",
        "lngbaidu": "121.393191",
        "lat": "31.2140637516",
        "lng": "121.3867834455"
    },
    {
        "id": "94437",
        "name": "LianQiang International Plaza",
        "addresseng": "No. 1068 West Tianshan RoadChangning District",
        "namecn": "联强国际店",
        "addresscn": "上海市长宁区联强国际二期1C单元天山西路1068号",
        "wifi": "Free WiFi",
        "description": "Most popular american coffee shop brand, Starbucks counts more than 300 shops in Shanghai. Be carefull if you want a coffee during the weekend, stabucks shops used to be crowded :)",
        "Phone": "",
        "website": "http://www.starbucks.com.cn/",
        "latte": "30 rmb",
        "open1": "Monday to Friday：07:00-19:00",
        "open2": "Saturday to Sunday：Closed",
        "open3": "",
        "open4": "",
        "latbaidu": "31.224947",
        "lngbaidu": "121.361691",
        "lat": "31.2188385428",
        "lng": "121.3553130245"
    },
    {
        "id": "116323",
        "name": "JinSha Met",
        "addresseng": "No.619 South Qilianshan Rd.Putuo District",
        "namecn": "金沙广场店",
        "addresscn": "上海市普陀区金沙广场祁连山南路619号",
        "wifi": "Free WiFi",
        "description": "Most popular american coffee shop brand, Starbucks counts more than 300 shops in Shanghai. Be carefull if you want a coffee during the weekend, stabucks shops used to be crowded :)",
        "Phone": "",
        "website": "http://www.starbucks.com.cn/",
        "latte": "30 rmb",
        "open1": "Monday to Thursday：07:00-22:00",
        "open2": "Friday to Saturday：07:00-22:30",
        "open3": "Sunday：07:00-22:00",
        "open4": "",
        "latbaidu": "31.243073",
        "lngbaidu": "121.37348",
        "lat": "31.2369979777",
        "lng": "121.3670909544"
    },
    {
        "id": "1006923",
        "name": "118 Plaza",
        "addresseng": "NO 1685 Jinshajiang RdPutuo",
        "namecn": "118广场店",
        "addresscn": "上海市普陀区金沙江路1685号-4区",
        "wifi": "Free WiFi",
        "description": "Most popular american coffee shop brand, Starbucks counts more than 300 shops in Shanghai. Be carefull if you want a coffee during the weekend, stabucks shops used to be crowded :)",
        "Phone": "",
        "website": "http://www.starbucks.com.cn/",
        "latte": "30 rmb",
        "open1": "Monday to Sunday：07:00-22:00",
        "open2": "",
        "open3": "",
        "open4": "",
        "latbaidu": "31.236742",
        "lngbaidu": "121.385193",
        "lat": "31.2306552997",
        "lng": "121.3787929558"
    },
    {
        "id": "86953",
        "name": "Brilliant City",
        "addresseng": "No.71 Zhongtan RoadPu tuo District",
        "namecn": "中远两湾城店",
        "addresscn": "上海市普陀区中远两湾城中潭路71号",
        "wifi": "Free WiFi",
        "description": "Most popular american coffee shop brand, Starbucks counts more than 300 shops in Shanghai. Be carefull if you want a coffee during the weekend, stabucks shops used to be crowded :)",
        "Phone": "",
        "website": "http://www.starbucks.com.cn/",
        "latte": "30 rmb",
        "open1": "Monday to Thursday：07:00-22:00",
        "open2": "Friday to Sunday：07:00-22:30",
        "open3": "",
        "open4": "",
        "latbaidu": "31.258722",
        "lngbaidu": "121.449125",
        "lat": "31.2526758436",
        "lng": "121.4426649226"
    },
    {
        "id": "89379",
        "name": "SMV",
        "addresseng": "No.65,Lane 777,W.Guangzhong RdZhabei district",
        "namecn": "多媒体谷店",
        "addresscn": "上海市闸北区多媒体谷产业园广中西路777弄65号102室",
        "wifi": "Free WiFi",
        "description": "Most popular american coffee shop brand, Starbucks counts more than 300 shops in Shanghai. Be carefull if you want a coffee during the weekend, stabucks shops used to be crowded :)",
        "Phone": "",
        "website": "http://www.starbucks.com.cn/",
        "latte": "30 rmb",
        "open1": "Monday to Friday：07:00-19:30",
        "open2": "Saturday to Sunday：09:00-16:30",
        "open3": "",
        "open4": "",
        "latbaidu": "31.28492",
        "lngbaidu": "121.44613",
        "lat": "31.278922168",
        "lng": "121.439672735"
    },
    {
        "id": "1006474",
        "name": "May Flower",
        "addresseng": "No 518 Zhijiang RdZha Bei District",
        "namecn": "五月花生活广场店",
        "addresscn": "上海市闸北区一层101单元及二层201、239单元芷江西路518号",
        "wifi": "Free WiFi",
        "description": "Most popular american coffee shop brand, Starbucks counts more than 300 shops in Shanghai. Be carefull if you want a coffee during the weekend, stabucks shops used to be crowded :)",
        "Phone": "",
        "website": "http://www.starbucks.com.cn/",
        "latte": "30 rmb",
        "open1": "Monday to Sunday：07:00-22:00",
        "open2": "",
        "open3": "",
        "open4": "",
        "latbaidu": "31.262836",
        "lngbaidu": "121.463456",
        "lat": "31.2567974322",
        "lng": "121.4569824656"
    },
    {
        "id": "1607",
        "name": "Daning",
        "addresseng": "No.1898,Gonghexin Rd,Zhabei district",
        "namecn": "大宁店",
        "addresscn": "上海市闸北区大宁国际广场5幢1层114－117室共和新路1898号",
        "wifi": "Free WiFi",
        "description": "Most popular american coffee shop brand, Starbucks counts more than 300 shops in Shanghai. Be carefull if you want a coffee during the weekend, stabucks shops used to be crowded :)",
        "Phone": "",
        "website": "http://www.starbucks.com.cn/",
        "latte": "30 rmb",
        "open1": "Monday to Thursday：07:00-23:00",
        "open2": "Friday to Saturday：07:00-00:00",
        "open3": "Sunday：07:00-23:00",
        "open4": "",
        "latbaidu": "31.280286",
        "lngbaidu": "121.459695",
        "lat": "31.2742796202",
        "lng": "121.4532249973"
    },
    {
        "id": "69600",
        "name": "Centro Plaza 1F",
        "addresseng": "No.437,439, W.Tianmu RdZhabei district",
        "namecn": "恒汇大厦店",
        "addresscn": "上海市闸北区恒汇大厦天目西路437、439号",
        "wifi": "Free WiFi",
        "description": "Most popular american coffee shop brand, Starbucks counts more than 300 shops in Shanghai. Be carefull if you want a coffee during the weekend, stabucks shops used to be crowded :)",
        "Phone": "",
        "website": "http://www.starbucks.com.cn/",
        "latte": "30 rmb",
        "open1": "Monday to Friday：07:00-22:00",
        "open2": "Saturday to Sunday：08:00-21:00",
        "open3": "",
        "open4": "",
        "latbaidu": "31.252242",
        "lngbaidu": "121.458877",
        "lat": "31.2461838907",
        "lng": "121.4524077654"
    },
    {
        "id": "19463",
        "name": "The Center",
        "addresseng": "No.989,Changle RdXuhui district",
        "namecn": "世纪商贸店",
        "addresscn": "上海市徐汇区世纪商贸长乐路989号",
        "wifi": "Free WiFi",
        "description": "Most popular american coffee shop brand, Starbucks counts more than 300 shops in Shanghai. Be carefull if you want a coffee during the weekend, stabucks shops used to be crowded :)",
        "Phone": "",
        "website": "http://www.starbucks.com.cn/",
        "latte": "30 rmb",
        "open1": "Monday to Friday：07:00-21:00",
        "open2": "Saturday to Sunday：09:00-20:00",
        "open3": "",
        "open4": "",
        "latbaidu": "31.221665",
        "lngbaidu": "121.453206",
        "lat": "31.2155504889",
        "lng": "121.4467420905"
    },
    {
        "id": "1637",
        "name": "Evergo Tower",
        "addresseng": "No.1325,Middle Huaihai RdXuhui District",
        "namecn": "爱美高大厦店",
        "addresscn": "上海市徐汇区爱美高大厦1F-103室淮海中路1325号",
        "wifi": "Free WiFi",
        "description": "Most popular american coffee shop brand, Starbucks counts more than 300 shops in Shanghai. Be carefull if you want a coffee during the weekend, stabucks shops used to be crowded :)",
        "Phone": "",
        "website": "http://www.starbucks.com.cn/",
        "latte": "30 rmb",
        "open1": "Monday to Sunday：07:00-22:00",
        "open2": "",
        "open3": "",
        "open4": "",
        "latbaidu": "31.218619",
        "lngbaidu": "121.45637",
        "lat": "31.2124988703",
        "lng": "121.4499031195"
    },
    {
        "id": "1008538",
        "name": "Line2 Jing'An Temple",
        "addresseng": "Gate5,Line2 Jing'An TempleJing'An",
        "namecn": "静安寺地铁站店",
        "addresscn": "上海市静安区轨道交通二号线静安寺车站五号出口2-130商铺",
        "wifi": "Free WiFi",
        "description": "Most popular american coffee shop brand, Starbucks counts more than 300 shops in Shanghai. Be carefull if you want a coffee during the weekend, stabucks shops used to be crowded :)",
        "Phone": "",
        "website": "http://www.starbucks.com.cn/",
        "latte": "30 rmb",
        "open1": "Monday to Sunday：07:00-22:00",
        "open2": "",
        "open3": "",
        "open4": "",
        "latbaidu": "31.229403",
        "lngbaidu": "121.452058",
        "lat": "31.2233027623",
        "lng": "121.4455951685"
    },
    {
        "id": "1619",
        "name": "Fenyang Road",
        "addresseng": "138 Fengyang RoadHuangpu district",
        "namecn": "汾阳路店",
        "addresscn": "上海市卢湾区轻科大厦汾阳路138号1楼03单元",
        "wifi": "Free WiFi",
        "description": "Most popular american coffee shop brand, Starbucks counts more than 300 shops in Shanghai. Be carefull if you want a coffee during the weekend, stabucks shops used to be crowded :)",
        "Phone": "",
        "website": "http://www.starbucks.com.cn/",
        "latte": "30 rmb",
        "open1": "Monday to Sunday：07:00-21:00",
        "open2": "",
        "open3": "",
        "open4": "",
        "latbaidu": "31.216179",
        "lngbaidu": "121.459476",
        "lat": "31.2100543695",
        "lng": "121.4530062029"
    },
    {
        "id": "1006669",
        "name": "Reel Department-3F-Unit 301",
        "addresseng": "Unit 301,3F,No.1601,West Nanjing Rd.Jing An District",
        "namecn": "越洋广场2店",
        "addresscn": "上海市静安区越洋广场301,301-1室南京西路1601号",
        "wifi": "Free WiFi",
        "description": "Most popular american coffee shop brand, Starbucks counts more than 300 shops in Shanghai. Be carefull if you want a coffee during the weekend, stabucks shops used to be crowded :)",
        "Phone": "",
        "website": "http://www.starbucks.com.cn/",
        "latte": "30 rmb",
        "open1": "Monday to Sunday：10:00-22:00",
        "open2": "",
        "open3": "",
        "open4": "",
        "latbaidu": "31.229452",
        "lngbaidu": "121.454713",
        "lat": "31.2233518527",
        "lng": "121.4482476754"
    },
    {
        "id": "18973",
        "name": "Pearl Hotel",
        "addresseng": "No.212,Zhaojiabang RdHuangpu District",
        "namecn": "明珠店",
        "addresscn": "上海市黄浦区明珠大酒店大堂肇嘉浜路212号",
        "wifi": "Free WiFi",
        "description": "Most popular american coffee shop brand, Starbucks counts more than 300 shops in Shanghai. Be carefull if you want a coffee during the weekend, stabucks shops used to be crowded :)",
        "Phone": "",
        "website": "http://www.starbucks.com.cn/",
        "latte": "30 rmb",
        "open1": "Monday to Sunday：07:00-22:00",
        "open2": "",
        "open3": "",
        "open4": "",
        "latbaidu": "31.209681",
        "lngbaidu": "121.468948",
        "lat": "31.2035443834",
        "lng": "121.4624693085"
    },
    {
        "id": "1008539",
        "name": "Hope Hotel",
        "addresseng": "Lobby, No.500 Zhaojiabang RdXuhui",
        "namecn": "好望角店",
        "addresscn": "上海市徐汇区好望角酒店肇嘉浜路500号",
        "wifi": "Free WiFi",
        "description": "Most popular american coffee shop brand, Starbucks counts more than 300 shops in Shanghai. Be carefull if you want a coffee during the weekend, stabucks shops used to be crowded :)",
        "Phone": "",
        "website": "http://www.starbucks.com.cn/",
        "latte": "30 rmb",
        "open1": "Monday to Sunday：07:00-22:00",
        "open2": "",
        "open3": "",
        "open4": "",
        "latbaidu": "31.207506",
        "lngbaidu": "121.460833",
        "lat": "31.2013653715",
        "lng": "121.4543619287"
    },
    {
        "id": "87185",
        "name": "SML Central Square-1F",
        "addresseng": "No.618,Xujiahui RdHuangpu DistrictSML Central Square",
        "namecn": "日月光店",
        "addresscn": "上海市黄浦区日月光广场一层1F-A08单元徐家汇路618号",
        "wifi": "Free WiFi",
        "description": "Most popular american coffee shop brand, Starbucks counts more than 300 shops in Shanghai. Be carefull if you want a coffee during the weekend, stabucks shops used to be crowded :)",
        "Phone": "",
        "website": "http://www.starbucks.com.cn/",
        "latte": "30 rmb",
        "open1": "Monday to Thursday：07:00-22:00",
        "open2": "Friday to Saturday：07:00-23:00",
        "open3": "Sunday：07:00-22:00",
        "open4": "",
        "latbaidu": "31.211794",
        "lngbaidu": "121.474777",
        "lat": "31.205661281",
        "lng": "121.468292835"
    },
    {
        "id": "1566",
        "name": "Datong",
        "addresseng": "NO.593,Xiexu RoadLuwan District",
        "namecn": "大同店",
        "addresscn": "上海市徐汇区斜徐路斜徐路593号",
        "wifi": "Free WiFi",
        "description": "Most popular american coffee shop brand, Starbucks counts more than 300 shops in Shanghai. Be carefull if you want a coffee during the weekend, stabucks shops used to be crowded :)",
        "Phone": "",
        "website": "http://www.starbucks.com.cn/",
        "latte": "30 rmb",
        "open1": "Monday to Sunday：07:00-22:00",
        "open2": "",
        "open3": "",
        "open4": "",
        "latbaidu": "31.212231",
        "lngbaidu": "121.479169",
        "lat": "31.2060990871",
        "lng": "121.4726807109"
    },