[
    {
        "id": "0",
        "name": "Grand Gateway",
        "brand": "Starbucks",
        "wifi": "Free",
        "latte": "30",
        "address": "No.1 Hong Qiao LuRoom 168,Shanghai",
        "lat": "31.211101",
        "lng": "121.405981",
        "zip": "200030"
    },
    {
        "id": "1",
        "name": "Qi Xin",
        "brand": "Starbucks",
        "wifi": "Free",
        "latte": "30",
        "address": "Qixin RoadMinhang District,Shanghai",
        "lat": "31.1615036",
        "lng": "121.3450598",
        "zip": ""
    },
    {
        "id": "2",
        "name": "Golden Bridge",
        "brand": "Starbucks",
        "wifi": "Free",
        "latte": "30",
        "address": "633 Bi Yun Road,Shanghai",
        "lat": "31.241747",
        "lng": "121.58271",
        "zip": "201206"
    },
    {
        "id": "3",
        "name": "Tomorrow Square",
        "brand": "Starbucks",
        "wifi": "Free",
        "latte": "30",
        "address": "1F, No.399 Nan Jing Xi RdHuang Pu,Shanghai",
        "lat": "31.2388296",
        "lng": "121.4895147",
        "zip": "200001"
    },
    {
        "id": "4",
        "name": "Raffles City Shanghai",
        "brand": "Starbucks",
        "wifi": "Free",
        "latte": "30",
        "address": "268 Xi Zang Zhong RoadHuang Pu,Shanghai",
        "lat": "31.239339",
        "lng": "121.4731563",
        "zip": "200120"
    },
    {
        "id": "5",
        "name": "You Yi (Closed)",
        "brand": "Starbucks",
        "wifi": "Free",
        "latte": "30",
        "address": "No.65 East Yan?an Road,Shanghai",
        "lat": "31.229491",
        "lng": "121.4803692",
        "zip": ""
    },
    {
        "id": "6",
        "name": "Classic Hotel (Closed)",
        "brand": "Starbucks",
        "wifi": "Free",
        "latte": "30",
        "address": "242 Fu You Road,Shanghai",
        "lat": "31.227842",
        "lng": "121.49079",
        "zip": "200010"
    },
    {
        "id": "7",
        "name": "Datong",
        "brand": "Starbucks",
        "wifi": "Free",
        "latte": "30",
        "address": "NO.593,Xiexu Road,Luwan District,Shanghai",
        "lat": "31.203031",
        "lng": "121.477572",
        "zip": "200001"
    },
    {
        "id": "8",
        "name": "Redhouse",
        "brand": "Starbucks",
        "wifi": "Free",
        "latte": "30",
        "address": "35 Shanxi Road,Shanghai",
        "lat": "31.23508",
        "lng": "121.483283",
        "zip": "200040"
    },
    {
        "id": "9",
        "name": "Hongmei",
        "brand": "Starbucks",
        "wifi": "Free",
        "latte": "30",
        "address": "hongmei RoadMinhang District,Shanghai",
        "lat": "31.1621863",
        "lng": "121.4023876",
        "zip": ""
    },
    {
        "id": "10",
        "name": "Shanghaimart",
        "brand": "Starbucks",
        "wifi": "Free",
        "latte": "30",
        "address": "2299 YANAN XI ROAD,Shanghai",
        "lat": "31.201664",
        "lng": "121.402392",
        "zip": "200336"
    },
    {
        "id": "11",
        "name": "South Mart",
        "brand": "Starbucks",
        "wifi": "Free",
        "latte": "30",
        "address": "Ming Hang,Shanghai",
        "lat": "31.2470894",
        "lng": "121.4912392",
        "zip": ""
    },
    {
        "id": "12",
        "name": "Information Tower",
        "brand": "Starbucks",
        "wifi": "Free",
        "latte": "30",
        "address": "211 Century Avenue1&2F,Shanghai",
        "lat": "31.230416",
        "lng": "121.473701",
        "zip": ""
    },
    {
        "id": "13",
        "name": "Jin Ying",
        "brand": "Starbucks",
        "wifi": "Free",
        "latte": "30",
        "address": "No. 278 West ShanXi Road,Shanghai",
        "lat": "31.2455059",
        "lng": "121.4800523",
        "zip": "200040"
    },
    {
        "id": "14",
        "name": "Yu Garden 2",
        "brand": "Starbucks",
        "wifi": "Free",
        "latte": "30",
        "address": "10 Wenchang Road,Shanghai",
        "lat": "31.2759261",
        "lng": "121.5454856",
        "zip": "200010"
    },
    {
        "id": "15",
        "name": "Citigroup Tower",
        "brand": "Starbucks",
        "wifi": "Free",
        "latte": "30",
        "address": "Hua Yuan Shi Qiao Road,Shanghai",
        "lat": "31.2346008",
        "lng": "121.503469",
        "zip": "200120"
    },
    {
        "id": "16",
        "name": "Zhenguang Road",
        "brand": "Starbucks",
        "wifi": "Free",
        "latte": "30",
        "address": "No. 1326 Zhenguang Road,Shanghai",
        "lat": "31.2459972",
        "lng": "121.3825172",
        "zip": "200333"
    },
    {
        "id": "17",
        "name": "Tangchen",
        "brand": "Starbucks",
        "wifi": "Free",
        "latte": "30",
        "address": "710 Dongfang Road,Shanghai",
        "lat": "31.229504",
        "lng": "121.5247924",
        "zip": "200120"
    },
    {
        "id": "18",
        "name": "Shanghai Legend",
        "brand": "Starbucks",
        "wifi": "Free",
        "latte": "30",
        "address": "635 Bilbo Road,Shanghai",
        "lat": "31.230416",
        "lng": "121.473701",
        "zip": "201203"
    },
    {
        "id": "19",
        "name": "North Sichuan Road",
        "brand": "Starbucks",
        "wifi": "Free",
        "latte": "30",
        "address": "No. 1605 North Sichuan Road,Shanghai",
        "lat": "31.25808",
        "lng": "121.4828715",
        "zip": "200080"
    },
    {
        "id": "20",
        "name": "Linkong",
        "brand": "Starbucks",
        "wifi": "Free",
        "latte": "30",
        "address": "No. 541 West Tianshan Rd,Shanghai",
        "lat": "31.2128626",
        "lng": "121.3962193",
        "zip": "200335"
    },
    {
        "id": "21",
        "name": "Ruihong",
        "brand": "Starbucks",
        "wifi": "Free",
        "latte": "30",
        "address": "No.1, Lingpin RoadRoom 10-11, 1F,Shanghai",
        "lat": "31.230416",
        "lng": "121.473701",
        "zip": "200086"
    },
    {
        "id": "22",
        "name": "New World Shanghai",
        "brand": "Starbucks",
        "wifi": "Free",
        "latte": "30",
        "address": "2-68 Nangjin Road,Shanghai",
        "lat": "31.1939052",
        "lng": "121.4681978",
        "zip": "200003"
    },
    {
        "id": "23",
        "name": "Maxdo",
        "brand": "Starbucks",
        "wifi": "Free",
        "latte": "30",
        "address": "8 Xingyi Road,Shanghai",
        "lat": "31.204444",
        "lng": "121.404957",
        "zip": "200051"
    },
    {
        "id": "24",
        "name": "Robinsons",
        "brand": "Starbucks",
        "wifi": "Free",
        "latte": "30",
        "address": "Chengzhong road Jiading Area Shanghai Ci,Shanghai",
        "lat": "31.230416",
        "lng": "121.473701",
        "zip": ""
    },
    {
        "id": "25",
        "name": "Fortune Times",
        "brand": "Starbucks",
        "wifi": "Free",
        "latte": "30",
        "address": "127 Changshou Road,Shanghai",
        "lat": "31.24338",
        "lng": "121.439496",
        "zip": "200060"
    },
    {
        "id": "26",
        "name": "East Hospital",
        "brand": "Starbucks",
        "wifi": "Free",
        "latte": "30",
        "address": "Jimo Road, Pudong District,Shanghai",
        "lat": "31.2405565",
        "lng": "121.5118314",
        "zip": ""
    },
    {
        "id": "27",
        "name": "Zunyi Store (Closed)",
        "brand": "Starbucks",
        "wifi": "Free",
        "latte": "30",
        "address": "Zunyi Road, Hongqiaoi,Shanghai",
        "lat": "31.2105926",
        "lng": "121.407685",
        "zip": ""
    },
    {
        "id": "28",
        "name": "Singapore Residence (Closed)",
        "brand": "Starbucks",
        "wifi": "Free",
        "latte": "30",
        "address": "No. 888 Zhaojiabang Road1F,Shanghai",
        "lat": "31.1935172",
        "lng": "121.4390181",
        "zip": ""
    },
    {
        "id": "29",
        "name": "Xin Tian Di",
        "brand": "Starbucks",
        "wifi": "Free",
        "latte": "30",
        "address": "No.18 Building Lane 181, Taicang Road,Shanghai",
        "lat": "31.230416",
        "lng": "121.473701",
        "zip": "200023"
    },
    {
        "id": "30",
        "name": "Bin Jiang",
        "brand": "Starbucks",
        "wifi": "Free",
        "latte": "30",
        "address": "Fu Du Duan Bin Jiang Da Dao Pu Dong,Shanghai",
        "lat": "31.230416",
        "lng": "121.473701",
        "zip": ""
    },
    {
        "id": "31",
        "name": "Mei Chen",
        "brand": "Starbucks",
        "wifi": "Free",
        "latte": "30",
        "address": "937 Huai Hai Zhong Lu,Shanghai",
        "lat": "31.23389",
        "lng": "121.491231",
        "zip": ""
    },
    {
        "id": "32",
        "name": "Kerry EverBright City (Closed)",
        "brand": "Starbucks",
        "wifi": "Free",
        "latte": "30",
        "address": "No.218 Tian Mu Xi Rd,Shanghai",
        "lat": "31.2457865",
        "lng": "121.4527412",
        "zip": ""
    },
    {
        "id": "33",
        "name": "Qibao (Closed)",
        "brand": "Starbucks",
        "wifi": "Free",
        "latte": "30",
        "address": "QIXING SHANGHAI NO.3155,Shanghai",
        "lat": "31.1615036",
        "lng": "121.3450598",
        "zip": ""
    },
    {
        "id": "34",
        "name": "Lippo (Closed)",
        "brand": "Starbucks",
        "wifi": "Free",
        "latte": "30",
        "address": "222 Haui-Hai Zhong Road,Shanghai",
        "lat": "31.214919",
        "lng": "121.454168",
        "zip": ""
    },
    {
        "id": "35",
        "name": "Hong Xiang Dept Store (Closed)",
        "brand": "Starbucks",
        "wifi": "Free",
        "latte": "30",
        "address": "No 869 West Nanjing Road,Shanghai",
        "lat": "31.234774",
        "lng": "121.474799",
        "zip": "200010"
    },
    {
        "id": "36",
        "name": "Shanghai Center",
        "brand": "Starbucks",
        "wifi": "Free",
        "latte": "30",
        "address": "1376 Nan Jin Lu,Shanghai",
        "lat": "31.267881",
        "lng": "121.601512",
        "zip": ""
    },
    {
        "id": "37",
        "name": "Mori",
        "brand": "Starbucks",
        "wifi": "Free",
        "latte": "30",
        "address": "101 Yuin Cheng East Road,Shanghai",
        "lat": "31.230416",
        "lng": "121.473701",
        "zip": "200120"
    },
    {
        "id": "38",
        "name": "Citic Square (Closed)",
        "brand": "Starbucks",
        "wifi": "Free",
        "latte": "30",
        "address": "1168 West Nanjing Road,Shanghai",
        "lat": "31.234774",
        "lng": "121.474799",
        "zip": ""
    },
    {
        "id": "39",
        "name": "East Ocean Centre Store",
        "brand": "Starbucks",
        "wifi": "Free",
        "latte": "30",
        "address": "No. 588 East Yan An Dong Rd.,Shanghai",
        "lat": "31.229491",
        "lng": "121.4803692",
        "zip": "200001"
    },
    {
        "id": "40",
        "name": "Metro City - 2nd Floor",
        "brand": "Starbucks",
        "wifi": "Free",
        "latte": "30",
        "address": "No.1111 Zhao Jia Bang Road2nd Floor,Shanghai",
        "lat": "31.2001539",
        "lng": "121.4527063",
        "zip": ""
    },
    {
        "id": "41",
        "name": "Central Plaza (Lu Wan District)",
        "brand": "Starbucks",
        "wifi": "Free",
        "latte": "30",
        "address": "Central Plaza (Lu Wan District)381 Huai Hai Zhong Lu,Shanghai",
        "lat": "31.221826",
        "lng": "121.473445",
        "zip": ""
    },
    {
        "id": "42",
        "name": "Oriental Meitha (Closed)",
        "brand": "Starbucks",
        "wifi": "Free",
        "latte": "30",
        "address": "No. 98 Huaihai-zhong road,Shanghai",
        "lat": "31.214919",
        "lng": "121.454168",
        "zip": ""
    },
    {
        "id": "43",
        "name": "Time Square Pu Dong",
        "brand": "Starbucks",
        "wifi": "Free",
        "latte": "30",
        "address": "No. 500 Zhang Yang Road,,Shanghai",
        "lat": "31.2374456",
        "lng": "121.5479847",
        "zip": ""
    },
    {
        "id": "44",
        "name": "East Paris (Closed)",
        "brand": "Starbucks",
        "wifi": "Free",
        "latte": "30",
        "address": "No. 559 Nan Chang Road,Shanghai",
        "lat": "31.2169147",
        "lng": "121.4625183",
        "zip": ""
    },
    {
        "id": "45",
        "name": "Yu Yuan",
        "brand": "Starbucks",
        "wifi": "Free",
        "latte": "30",
        "address": "No. 100 Yu Yuan Road,Shanghai",
        "lat": "31.2204014",
        "lng": "121.4344348",
        "zip": ""
    },
    {
        "id": "46",
        "name": "Century Scholar Books (Closed)",
        "brand": "Starbucks",
        "wifi": "Free",
        "latte": "30",
        "address": ",Shanghai",
        "lat": "31.230416",
        "lng": "121.473701",
        "zip": ""
    },
    {
        "id": "47",
        "name": "Superbrand Mall (Closed)",
        "brand": "Starbucks",
        "wifi": "Free",
        "latte": "30",
        "address": "168, Lu Jia Zui Xi Road, Pu Dong,Shanghai",
        "lat": "31.2366036",
        "lng": "121.4969202",
        "zip": ""
    },
    {
        "id": "48",
        "name": "Far Eastern Plaza",
        "brand": "Starbucks",
        "wifi": "Free",
        "latte": "30",
        "address": "No. 299 Xianxia Road, Hongqiao,Shanghai",
        "lat": "31.205976",
        "lng": "121.3896219",
        "zip": "200131"
    },
    {
        "id": "49",
        "name": "Gubei",
        "brand": "Starbucks",
        "wifi": "Free",
        "latte": "30",
        "address": "No.20, Shuicheng nan Road,Shanghai",
        "lat": "31.1959358",
        "lng": "121.3934971",
        "zip": ""
    },
    {
        "id": "50",
        "name": "People's Park",
        "brand": "Starbucks",
        "wifi": "Free",
        "latte": "30",
        "address": "No.231 Nan Jing West Road,Shanghai",
        "lat": "31.2276972",
        "lng": "121.4558581",
        "zip": ""
    },
    {
        "id": "51",
        "name": "Hotel Nikko (Closed)",
        "brand": "Starbucks",
        "wifi": "Free",
        "latte": "30",
        "address": "969 Dongfang Road, Pudong,Shanghai",
        "lat": "31.2273307",
        "lng": "121.5254923",
        "zip": "200122"
    },
    {
        "id": "52",
        "name": "Kerry Center (Shnaghai)",
        "brand": "Starbucks",
        "wifi": "Free",
        "latte": "30",
        "address": "Nan Jing West Road1515,Shanghai",
        "lat": "31.224547",
        "lng": "121.450655",
        "zip": ""
    },
    {
        "id": "53",
        "name": "GUODA (Radision) (Closed)",
        "brand": "Starbucks",
        "wifi": "Free",
        "latte": "30",
        "address": "No. 333, Ti Yu Chang Road,Shanghai",
        "lat": "31.1803749",
        "lng": "121.4410592",
        "zip": ""
    },
    {
        "id": "54",
        "name": "Intime Department Store (Yin-Tai)",
        "brand": "Starbucks",
        "wifi": "Free",
        "latte": "30",
        "address": "No. 530, Yan An RoadHangzhou,Shanghai",
        "lat": "31.230416",
        "lng": "121.473701",
        "zip": ""
    },
    {
        "id": "55",
        "name": "Park 2 Space",
        "brand": "Starbucks",
        "wifi": "Free",
        "latte": "30",
        "address": "No. 169 Mengzi RoadRoom 1-101,Shanghai",
        "lat": "31.2068986",
        "lng": "121.4772402",
        "zip": "200023"
    },
    {
        "id": "56",
        "name": "Jin Yan Road",
        "brand": "Starbucks",
        "wifi": "Free",
        "latte": "30",
        "address": "Jinyan RoadPudong District,Shanghai",
        "lat": "31.2162803",
        "lng": "121.540187",
        "zip": "200127"
    },
    {
        "id": "57",
        "name": "Tian Du Mall",
        "brand": "Starbucks",
        "wifi": "Free",
        "latte": "30",
        "address": "No 919, Tianshan Road1f & 2F, Changning Area,Shanghai",
        "lat": "31.230416",
        "lng": "121.473701",
        "zip": "200051"
    },
    {
        "id": "58",
        "name": "Yong Xin Garden",
        "brand": "Starbucks",
        "wifi": "Free",
        "latte": "30",
        "address": "Xin Gen Road,Shanghai",
        "lat": "31.1931711",
        "lng": "121.44385",
        "zip": "200031"
    },
    {
        "id": "59",
        "name": "Zhonghui Plaza",
        "brand": "Starbucks",
        "wifi": "Free",
        "latte": "30",
        "address": "No 1088 Xin Jin Qiao Road,Shanghai",
        "lat": "31.2526828",
        "lng": "121.6091494",
        "zip": "201206"
    },
    {
        "id": "60",
        "name": "Metro City - 2nd Floor",
        "brand": "Starbucks",
        "wifi": "Free",
        "latte": "30",
        "address": "No.1111 Zhao Jia Bang Road2nd Floor,Shanghai",
        "lat": "31.2001539",
        "lng": "121.4527063",
        "zip": ""
    },
    {
        "id": "61",
        "name": "Central Plaza (Lu Wan District)",
        "brand": "Starbucks",
        "wifi": "Free",
        "latte": "30",
        "address": "Central Plaza (Lu Wan District)381 Huai Hai Zhong Lu,Shanghai",
        "lat": "31.221826",
        "lng": "121.473445",
        "zip": ""
    },
    {
        "id": "62",
        "name": "Oriental Meitha (Closed)",
        "brand": "Starbucks",
        "wifi": "Free",
        "latte": "30",
        "address": "No. 98 Huaihai-zhong road,Shanghai",
        "lat": "31.214919",
        "lng": "121.454168",
        "zip": ""
    },
    {
        "id": "63",
        "name": "Time Square Pu Dong",
        "brand": "Starbucks",
        "wifi": "Free",
        "latte": "30",
        "address": "No. 500 Zhang Yang Road,,Shanghai",
        "lat": "31.2374456",
        "lng": "121.5479847",
        "zip": ""
    },
    {
        "id": "64",
        "name": "East Paris (Closed)",
        "brand": "Starbucks",
        "wifi": "Free",
        "latte": "30",
        "address": "No. 559 Nan Chang Road,Shanghai",
        "lat": "31.2169147",
        "lng": "121.4625183",
        "zip": ""
    },
    {
        "id": "65",
        "name": "Yu Yuan",
        "brand": "Starbucks",
        "wifi": "Free",
        "latte": "30",
        "address": "No. 100 Yu Yuan Road,Shanghai",
        "lat": "31.2204014",
        "lng": "121.4344348",
        "zip": ""
    },
    {
        "id": "66",
        "name": "Century Scholar Books (Closed)",
        "brand": "Starbucks",
        "wifi": "Free",
        "latte": "30",
        "address": ",Shanghai",
        "lat": "31.230416",
        "lng": "121.473701",
        "zip": ""
    },
    {
        "id": "67",
        "name": "Superbrand Mall (Closed)",
        "brand": "Starbucks",
        "wifi": "Free",
        "latte": "30",
        "address": "168, Lu Jia Zui Xi Road, Pu Dong,Shanghai",
        "lat": "31.2366036",
        "lng": "121.4969202",
        "zip": ""
    },
    {
        "id": "68",
        "name": "Far Eastern Plaza",
        "brand": "Starbucks",
        "wifi": "Free",
        "latte": "30",
        "address": "No. 299 Xianxia Road, Hongqiao,Shanghai",
        "lat": "31.205976",
        "lng": "121.3896219",
        "zip": "200131"
    },
    {
        "id": "69",
        "name": "Gubei",
        "brand": "Starbucks",
        "wifi": "Free",
        "latte": "30",
        "address": "No.20, Shuicheng nan Road,Shanghai",
        "lat": "31.1959358",
        "lng": "121.3934971",
        "zip": ""
    },
    {
        "id": "70",
        "name": "People's Park",
        "brand": "Starbucks",
        "wifi": "Free",
        "latte": "30",
        "address": "No.231 Nan Jing West Road,Shanghai",
        "lat": "31.2276972",
        "lng": "121.4558581",
        "zip": ""
    },
    {
        "id": "71",
        "name": "Hotel Nikko (Closed)",
        "brand": "Starbucks",
        "wifi": "Free",
        "latte": "30",
        "address": "969 Dongfang Road, Pudong,Shanghai",
        "lat": "31.2273307",
        "lng": "121.5254923",
        "zip": "200122"
    },
    {
        "id": "72",
        "name": "Kerry Center (Shnaghai)",
        "brand": "Starbucks",
        "wifi": "Free",
        "latte": "30",
        "address": "Nan Jing West Road1515,Shanghai",
        "lat": "31.224547",
        "lng": "121.450655",
        "zip": ""
    },
    {
        "id": "73",
        "name": "GUODA (Radision) (Closed)",
        "brand": "Starbucks",
        "wifi": "Free",
        "latte": "30",
        "address": "No. 333, Ti Yu Chang Road,Shanghai",
        "lat": "31.1803749",
        "lng": "121.4410592",
        "zip": ""
    },
    {
        "id": "74",
        "name": "Intime Department Store (Yin-Tai)",
        "brand": "Starbucks",
        "wifi": "Free",
        "latte": "30",
        "address": "No. 530, Yan An RoadHangzhou,Shanghai",
        "lat": "31.230416",
        "lng": "121.473701",
        "zip": ""
    },
    {
        "id": "75",
        "name": "Park 2 Space",
        "brand": "Starbucks",
        "wifi": "Free",
        "latte": "30",
        "address": "No. 169 Mengzi RoadRoom 1-101,Shanghai",
        "lat": "31.2068986",
        "lng": "121.4772402",
        "zip": "200023"
    },
    {
        "id": "76",
        "name": "Jin Yan Road",
        "brand": "Starbucks",
        "wifi": "Free",
        "latte": "30",
        "address": "Jinyan RoadPudong District,Shanghai",
        "lat": "31.2162803",
        "lng": "121.540187",
        "zip": "200127"
    },
    {
        "id": "77",
        "name": "Tian Du Mall",
        "brand": "Starbucks",
        "wifi": "Free",
        "latte": "30",
        "address": "No 919, Tianshan Road1f & 2F, Changning Area,Shanghai",
        "lat": "31.230416",
        "lng": "121.473701",
        "zip": "200051"
    },
    {
        "id": "78",
        "name": "Yong Xin Garden",
        "brand": "Starbucks",
        "wifi": "Free",
        "latte": "30",
        "address": "Xin Gen Road,Shanghai",
        "lat": "31.1931711",
        "lng": "121.44385",
        "zip": "200031"
    },
    {
        "id": "79",
        "name": "Zhonghui Plaza",
        "brand": "Starbucks",
        "wifi": "Free",
        "latte": "30",
        "address": "No 1088 Xin Jin Qiao Road,Shanghai",
        "lat": "31.2526828",
        "lng": "121.6091494",
        "zip": "201206"
    },
    {
        "id": "80",
        "name": "Shanghai World Financial Center",
        "brand": "Starbucks",
        "wifi": "Free",
        "latte": "30",
        "address": "Century Avenue Road,Shanghai",
        "lat": "31.228998",
        "lng": "121.526814",
        "zip": "200120"
    },
    {
        "id": "81",
        "name": "Ya Fan",
        "brand": "Starbucks",
        "wifi": "Free",
        "latte": "30",
        "address": "1149 Wu Zhong Road,Shanghai",
        "lat": "31.240649",
        "lng": "121.439419",
        "zip": "201100"
    },
    {
        "id": "82",
        "name": "Pacific of Zha Bei",
        "brand": "Starbucks",
        "wifi": "Free",
        "latte": "30",
        "address": "No. 218 West Tian Mu RoadGround Floor,Shanghai",
        "lat": "31.230416",
        "lng": "121.473701",
        "zip": "200001"
    },
    {
        "id": "83",
        "name": "People's Park Xizang Road",
        "brand": "Starbucks",
        "wifi": "Free",
        "latte": "30",
        "address": "Middle Xizang Road and Jiujiang Road,Shanghai",
        "lat": "31.230416",
        "lng": "121.473701",
        "zip": "200001"
    },
    {
        "id": "84",
        "name": "West NanJin Rd-Qing Hai Rd (Closed)",
        "brand": "Starbucks",
        "wifi": "Free",
        "latte": "30",
        "address": "No 696 West Nanjing Rd,Shanghai",
        "lat": "31.249271",
        "lng": "121.4855572",
        "zip": "200041"
    },
    {
        "id": "85",
        "name": "Wujiang Road - Shanghai",
        "brand": "Starbucks",
        "wifi": "Free",
        "latte": "30",
        "address": "No. 128 Wu Jiang RoadJing An District,Shanghai",
        "lat": "31.2303069",
        "lng": "121.4612561",
        "zip": "200041"
    },
    {
        "id": "86",
        "name": "Xu Jing Carrefour - Rm 120 (Closed)",
        "brand": "Starbucks",
        "wifi": "Free",
        "latte": "30",
        "address": "No 1829, Huqing Ping Rd, Qingpu DistrictRoom 120,Shanghai",
        "lat": "31.0890428",
        "lng": "120.9852307",
        "zip": "201702"
    },
    {
        "id": "87",
        "name": "Wu Ding Rd & Changhua Rd - Shanghai",
        "brand": "Starbucks",
        "wifi": "Free",
        "latte": "30",
        "address": "No 68 Changhua Rd,Shanghai",
        "lat": "31.1230682",
        "lng": "121.4474229",
        "zip": "200041"
    },
    {
        "id": "88",
        "name": "Shimao Shopping Center",
        "brand": "Starbucks",
        "wifi": "Free",
        "latte": "30",
        "address": "No.528 JinHui Rd,Shanghai",
        "lat": "31.2077606",
        "lng": "121.2758543",
        "zip": "201103"
    },
    {
        "id": "89",
        "name": "Zao-Fong World Trade Bldg-GF-Unit C",
        "brand": "Starbucks",
        "wifi": "Free",
        "latte": "30",
        "address": "Zao-Fong Wrld Trd Bldg No 369 Jiangsu Rd1st C+D unit,Shanghai",
        "lat": "31.230416",
        "lng": "121.473701",
        "zip": "200235"
    },
    {
        "id": "90",
        "name": "Intl Ocean Ship & Finance Ctr",
        "brand": "Starbucks",
        "wifi": "Free",
        "latte": "30",
        "address": "No 720 Pudong AveLobby,Shanghai",
        "lat": "31.230416",
        "lng": "121.473701",
        "zip": "200120"
    },
    {
        "id": "91",
        "name": "Yongan",
        "brand": "Starbucks",
        "wifi": "Free",
        "latte": "30",
        "address": "Nan Jing Road,Shanghai",
        "lat": "31.234774",
        "lng": "121.474799",
        "zip": "200010"
    },
    {
        "id": "92",
        "name": "Cloud Nine Mall 2",
        "brand": "Starbucks",
        "wifi": "Free",
        "latte": "30",
        "address": "No. 18 Changnin Road,Shanghai",
        "lat": "31.2184206",
        "lng": "121.4030092",
        "zip": "200050"
    },
    {
        "id": "93",
        "name": "Yaxin",
        "brand": "Starbucks",
        "wifi": "Free",
        "latte": "30",
        "address": "Changshou RoadPutuo District,Shanghai",
        "lat": "31.240076",
        "lng": "121.437859",
        "zip": ""
    },
    {
        "id": "94",
        "name": "Baguio Mansion",
        "brand": "Starbucks",
        "wifi": "Free",
        "latte": "30",
        "address": "1166 Middle Yan An Road,Shanghai",
        "lat": "31.221709",
        "lng": "121.451659",
        "zip": "310003"
    },
    {
        "id": "95",
        "name": "Knowledge & Innovation Community",
        "brand": "Starbucks",
        "wifi": "Free",
        "latte": "30",
        "address": "Song Hu Road,Shanghai",
        "lat": "31.3194746",
        "lng": "121.5066283",
        "zip": "200051"
    },
    {
        "id": "96",
        "name": "Diplomatic Circle",
        "brand": "Starbucks",
        "wifi": "Free",
        "latte": "30",
        "address": "No. 4 Hengshan Road,Shanghai",
        "lat": "31.203099",
        "lng": "121.4453429",
        "zip": "200030"
    },
    {
        "id": "97",
        "name": "Yao Jiang Plaza",
        "brand": "Starbucks",
        "wifi": "Free",
        "latte": "30",
        "address": "No. 288 Wu Song Road,Shanghai",
        "lat": "31.2496603",
        "lng": "121.4892167",
        "zip": "200080"
    },
    {
        "id": "98",
        "name": "Shimao Store",
        "brand": "Starbucks",
        "wifi": "Free",
        "latte": "30",
        "address": "Nan Jing Xi RoadHuang Po District,Shanghai",
        "lat": "31.2322692",
        "lng": "121.4709432",
        "zip": "200010"
    },
    {
        "id": "99",
        "name": "Shanghai Film Centre",
        "brand": "Starbucks",
        "wifi": "Free",
        "latte": "30",
        "address": "No. 160 Xinhua Road,Shanghai",
        "lat": "31.2047847",
        "lng": "121.4214493",
        "zip": "200052"
    },
    {
        "id": "100",
        "name": "Star Mall-Unit 1010",
        "brand": "Starbucks",
        "wifi": "Free",
        "latte": "30",
        "address": "No 1574 Caobao Rd.,Shanghai",
        "lat": "31.1591587",
        "lng": "121.3928846",
        "zip": "201101"
    },
    {
        "id": "101",
        "name": "Sail Tower",
        "brand": "Starbucks",
        "wifi": "Free",
        "latte": "30",
        "address": "No. 266 Hankou Road,Shanghai",
        "lat": "31.235109",
        "lng": "121.4825264",
        "zip": "200001"
    },
    {
        "id": "102",
        "name": "Jin Mao Tower - 3rd Floor",
        "brand": "Starbucks",
        "wifi": "Free",
        "latte": "30",
        "address": "No. 88 Shiji Avenue,Shanghai",
        "lat": "30.9415917",
        "lng": "121.4566742",
        "zip": "200121"
    },
    {
        "id": "103",
        "name": "Sky Mall - Ground Floor",
        "brand": "Starbucks",
        "wifi": "Free",
        "latte": "30",
        "address": "5001 Dushi Rd,Shanghai",
        "lat": "31.108009",
        "lng": "121.386125",
        "zip": "201100"
    },
    {
        "id": "104",
        "name": "Jin Shan Shopping Mall - G/F",
        "brand": "Starbucks",
        "wifi": "Free",
        "latte": "30",
        "address": "No.18, West Weiqing RoadUnit 101-102,Shanghai",
        "lat": "30.7305418",
        "lng": "121.3501271",
        "zip": "200540"
    },
    {
        "id": "105",
        "name": "SHA-Hong Qiao Airport-Departure Bay",
        "brand": "Starbucks",
        "wifi": "Free",
        "latte": "30",
        "address": "No. 2550 HongQiao Road,Shanghai",
        "lat": "31.2001038",
        "lng": "121.39852",
        "zip": "20335"
    },
    {
        "id": "106",
        "name": "IFC-SH Shopping Mall Store - B2",
        "brand": "Starbucks",
        "wifi": "Free",
        "latte": "30",
        "address": "No 8 Century Avenue, Pudong DistrictB2,Shanghai",
        "lat": "31.2299505",
        "lng": "121.5245184",
        "zip": "200001"
    },
    {
        "id": "107",
        "name": "Huge World - Ground Floor",
        "brand": "Starbucks",
        "wifi": "Free",
        "latte": "30",
        "address": "No.3000, North Zhongshan RoadUnit 112,Shanghai",
        "lat": "31.0447771",
        "lng": "121.7536438",
        "zip": "200063"
    },
    {
        "id": "108",
        "name": "Joy City - 3F",
        "brand": "Starbucks",
        "wifi": "Free",
        "latte": "30",
        "address": "No. 108 North Xizang Road,Shanghai",
        "lat": "31.2545221",
        "lng": "121.4685315",
        "zip": "200001"
    },
    {
        "id": "109",
        "name": "BEA Finance Tower - Lobby",
        "brand": "Starbucks",
        "wifi": "Free",
        "latte": "30",
        "address": "No. 66 Hua Yuan Shi Qiao RoadLobby,Shanghai",
        "lat": "31.230416",
        "lng": "121.473701",
        "zip": "200120"
    },
    {
        "id": "110",
        "name": "Metro Tower",
        "brand": "Starbucks",
        "wifi": "Free",
        "latte": "30",
        "address": "No. 30 Tianyaoqiao RoadLobby,Shanghai",
        "lat": "31.230416",
        "lng": "121.473701",
        "zip": "200030"
    },
    {
        "id": "111",
        "name": "Century Corridor-Lujiazi CBD",
        "brand": "Starbucks",
        "wifi": "Free",
        "latte": "30",
        "address": "No. 2 Center Yin Chen Road",
        "lat": "31.230416",
        "lng": "121.473701",
        "zip": "200335"
    },
    {
        "id": "112",
        "name": "HK New World Department Store",
        "brand": "Starbucks",
        "wifi": "Free",
        "latte": "30",
        "address": "No.1993 Chengshan Rd,Shanghai",
        "lat": "31.1735196",
        "lng": "121.5164526",
        "zip": "200001"
    },
    {
        "id": "113",
        "name": "The Center",
        "brand": "Starbucks",
        "wifi": "Free",
        "latte": "30",
        "address": "No. 989 Changle Road,Shanghai",
        "lat": "31.2193624",
        "lng": "121.455253",
        "zip": "200001"
    },
    {
        "id": "114",
        "name": "Bund Center & Westin Store",
        "brand": "Starbucks",
        "wifi": "Free",
        "latte": "30",
        "address": "No. 222 East Yan'an Road,Shanghai",
        "lat": "31.229491",
        "lng": "121.4803692",
        "zip": "200001"
    },
    {
        "id": "115",
        "name": "Xie He",
        "brand": "Starbucks",
        "wifi": "Free",
        "latte": "30",
        "address": "N0.2066, Nanjing West Road, Shanghai,Shanghai",
        "lat": "31.22638",
        "lng": "121.452433",
        "zip": "200040"
    },
    {
        "id": "116",
        "name": "Tian'ai Rd Store",
        "brand": "Starbucks",
        "wifi": "Free",
        "latte": "30",
        "address": "Tian'ai Road Sichuan Bei Road,Shanghai",
        "lat": "31.230416",
        "lng": "121.473701",
        "zip": "200081"
    },
    {
        "id": "117",
        "name": "Waigaoqiao",
        "brand": "Starbucks",
        "wifi": "Free",
        "latte": "30",
        "address": "No 24, Jiafeng RoadWaigaoqiao Bonded Area,Shanghai",
        "lat": "31.230416",
        "lng": "121.473701",
        "zip": "200051"
    },
    {
        "id": "118",
        "name": "Liu Lin",
        "brand": "Starbucks",
        "wifi": "Free",
        "latte": "30",
        "address": "No.1 Huai hai ZhongRoad,Shanghai",
        "lat": "31.214919",
        "lng": "121.454168",
        "zip": "200021"
    },
    {
        "id": "119",
        "name": "Big Thumb",
        "brand": "Starbucks",
        "wifi": "Free",
        "latte": "30",
        "address": "Fangdian Rd.,Shanghai",
        "lat": "31.2170457",
        "lng": "121.5608219",
        "zip": ""
    },
    {
        "id": "120",
        "name": "Super Brand Mall 1F II",
        "brand": "Starbucks",
        "wifi": "Free",
        "latte": "30",
        "address": "168 Lu Jia Zui Xi Road 1F,Shanghai",
        "lat": "31.253796",
        "lng": "121.492556",
        "zip": ""
    },
    {
        "id": "121",
        "name": "Hi-Shanghai (Closed)",
        "brand": "Starbucks",
        "wifi": "Free",
        "latte": "30",
        "address": "No.242 Feihong road,Shanghai",
        "lat": "31.2647804",
        "lng": "121.507457",
        "zip": "200092"
    },
    {
        "id": "122",
        "name": "Xin Hua",
        "brand": "Starbucks",
        "wifi": "Free",
        "latte": "30",
        "address": "Xin hua Road,Shanghai",
        "lat": "31.2047847",
        "lng": "121.4214493",
        "zip": ""
    },
    {
        "id": "123",
        "name": "Qiaoziwan",
        "brand": "Starbucks",
        "wifi": "Free",
        "latte": "30",
        "address": "Chengzhong Road,Shanghai",
        "lat": "31.3815118",
        "lng": "121.2483426",
        "zip": ""
    },
    {
        "id": "124",
        "name": "Dongying",
        "brand": "Starbucks",
        "wifi": "Free",
        "latte": "30",
        "address": "No.200 North Linyi Road, Pudong District,Shanghai",
        "lat": "31.1950169",
        "lng": "121.5130454",
        "zip": "200127"
    },
    {
        "id": "125",
        "name": "Zhongshan Park",
        "brand": "Starbucks",
        "wifi": "Free",
        "latte": "30",
        "address": "No.999 Changning Road,Shanghai",
        "lat": "31.2184206",
        "lng": "121.4030092",
        "zip": "200050"
    },
    {
        "id": "126",
        "name": "Ruijin Rd",
        "brand": "Starbucks",
        "wifi": "Free",
        "latte": "30",
        "address": "No. 101-107 Ruijin Second Rd, Luwan Dist,Shanghai",
        "lat": "31.208353",
        "lng": "121.462056",
        "zip": "200020"
    },
    {
        "id": "127",
        "name": "Huashi Qijian (Closed)",
        "brand": "Starbucks",
        "wifi": "Free",
        "latte": "30",
        "address": "No.688 Huaihai Zhong Road,Shanghai",
        "lat": "31.2135923",
        "lng": "121.4515917",
        "zip": "200040"
    },
    {
        "id": "128",
        "name": "Mirama Garden",
        "brand": "Starbucks",
        "wifi": "Free",
        "latte": "30",
        "address": "No.75 South Shuicheng Road,Shanghai",
        "lat": "31.2091896",
        "lng": "121.3909884",
        "zip": "200336"
    },
    {
        "id": "129",
        "name": "Shanghai Stadium",
        "brand": "Starbucks",
        "wifi": "Free",
        "latte": "30",
        "address": "No.1111 Caoxi Bei Road Shanghai,Shanghai",
        "lat": "31.187995",
        "lng": "121.4371442",
        "zip": "200030"
    },
    {
        "id": "130",
        "name": "New Eir - Relocation",
        "brand": "Starbucks",
        "wifi": "Free",
        "latte": "30",
        "address": "No.8 Songhu RoadGuoji Road Entrance,Shanghai",
        "lat": "31.230416",
        "lng": "121.473701",
        "zip": "200001"
    },
    {
        "id": "131",
        "name": "800 Show-ChangDe Rd ChangPing Rd",
        "brand": "Starbucks",
        "wifi": "Free",
        "latte": "30",
        "address": "No. 800 ChangDe RaodJing An District,Shanghai",
        "lat": "31.2305946",
        "lng": "121.4456992",
        "zip": "200040"
    },
    {
        "id": "132",
        "name": "SHA Hong Qiao Airport-Concourse",
        "brand": "Starbucks",
        "wifi": "Free",
        "latte": "30",
        "address": "NO.2550 HongQiao Road,Shanghai",
        "lat": "31.2001038",
        "lng": "121.39852",
        "zip": "200335"
    },
    {
        "id": "133",
        "name": "Pearl Hotel",
        "brand": "Starbucks",
        "wifi": "Free",
        "latte": "30",
        "address": "No. 212 Zhao jia bang Road,Shanghai",
        "lat": "31.2014844",
        "lng": "121.4566067",
        "zip": "200020"
    },
    {
        "id": "134",
        "name": "Shanghai World Expo Entertainment C",
        "brand": "Starbucks",
        "wifi": "Free",
        "latte": "30",
        "address": "Expo Site XiYing Road & BeilHuan Road,Shanghai",
        "lat": "31.230416",
        "lng": "121.473701",
        "zip": "200126"
    },
    {
        "id": "135",
        "name": "Super Brand Mall - Reloc 3 Floor",
        "brand": "Starbucks",
        "wifi": "Free",
        "latte": "30",
        "address": "No. 168, Lu Jia Zui Xi Road3F, Unit #3H028-1,Shanghai",
        "lat": "31.230416",
        "lng": "121.473701",
        "zip": "200120"
    },
    {
        "id": "136",
        "name": "Max Mall",
        "brand": "Starbucks",
        "wifi": "Free",
        "latte": "30",
        "address": "1500 South Lianhua Road,Shanghai",
        "lat": "31.096145",
        "lng": "121.414753",
        "zip": "20051"
    },
    {
        "id": "137",
        "name": "Jin Feng Road",
        "brand": "Starbucks",
        "wifi": "Free",
        "latte": "30",
        "address": "447 Jin Feng Road,Shanghai",
        "lat": "31.262987",
        "lng": "121.45612",
        "zip": "200080"
    },
    {
        "id": "138",
        "name": "Mediterranean Sea",
        "brand": "Starbucks",
        "wifi": "Free",
        "latte": "30",
        "address": "No.1-000 Xinsongjiang Rd, SongJiang Dist1F,Shanghai",
        "lat": "31.0388408",
        "lng": "121.2089604",
        "zip": "201620"
    },
    {
        "id": "139",
        "name": "Zhaoxiang",
        "brand": "Starbucks",
        "wifi": "Free",
        "latte": "30",
        "address": "NO.2888 Huqingping Road, Qinpu District,Shanghai",
        "lat": "31.0890428",
        "lng": "120.9852307",
        "zip": "201703"
    },
    {
        "id": "140",
        "name": "Pos Plaza",
        "brand": "Starbucks",
        "wifi": "Free",
        "latte": "30",
        "address": "POS-PLAZA(3F)1600 Century Avenue Pudong,Shanghai",
        "lat": "31.228998",
        "lng": "121.526814",
        "zip": "200122"
    },
    {
        "id": "141",
        "name": "Grand Gateway U",
        "brand": "Starbucks",
        "wifi": "Free",
        "latte": "30",
        "address": "No.1 Hongqiao Road,Shanghai",
        "lat": "31.2001038",
        "lng": "121.39852",
        "zip": "200030"
    },
    {
        "id": "142",
        "name": "Junyao",
        "brand": "Starbucks",
        "wifi": "Free",
        "latte": "30",
        "address": "No.789 Zhaojiabang Road1F,Shanghai",
        "lat": "31.1935172",
        "lng": "121.4390181",
        "zip": "200032"
    },
    {
        "id": "143",
        "name": "Cloud Nine Mall 1",
        "brand": "Starbucks",
        "wifi": "Free",
        "latte": "30",
        "address": "No. 1018, Chang Ning Road,Shanghai",
        "lat": "31.2184206",
        "lng": "121.4030092",
        "zip": "200070"
    },
    {
        "id": "144",
        "name": "Cailun Road",
        "brand": "Starbucks",
        "wifi": "Free",
        "latte": "30",
        "address": "780 Cailun Road, Pudong District,Shanghai",
        "lat": "31.193453",
        "lng": "121.60662",
        "zip": "201203"
    },
    {
        "id": "145",
        "name": "Citic Square",
        "brand": "Starbucks",
        "wifi": "Free",
        "latte": "30",
        "address": "No 1168 West Nanjing Road, BasementJing'an District,Shanghai",
        "lat": "31.230416",
        "lng": "121.473701",
        "zip": "200041"
    },
    {
        "id": "146",
        "name": "Anderson Plaza 1st & 2nd Floors",
        "brand": "Starbucks",
        "wifi": "Free",
        "latte": "30",
        "address": "No 1238 Mudanjiang Rd B-area Room 1061st & 2nd Floors,Shanghai",
        "lat": "31.230416",
        "lng": "121.473701",
        "zip": "200940"
    },
    {
        "id": "147",
        "name": "Hongqiao Bus Ctr-Changning Dst",
        "brand": "Starbucks",
        "wifi": "Free",
        "latte": "30",
        "address": "No 2268 Hongqiao Rd,Shanghai",
        "lat": "31.2001038",
        "lng": "121.39852",
        "zip": "200336"
    },
    {
        "id": "148",
        "name": "Jiang Su Rd & Yuyuan Rd-Changning D",
        "brand": "Starbucks",
        "wifi": "Free",
        "latte": "30",
        "address": "No. 969 Yuyuan Road,Shanghai",
        "lat": "31.2204014",
        "lng": "121.4344348",
        "zip": "200052"
    },
    {
        "id": "149",
        "name": "The Cool Docks - 101 Room -Shanghai",
        "brand": "Starbucks",
        "wifi": "Free",
        "latte": "30",
        "address": "No 505 South Zhongshan Road,Shanghai",
        "lat": "31.2099712",
        "lng": "121.5017691",
        "zip": "200010"
    },
    {
        "id": "150",
        "name": "Oasis Intl Plaza - Lobby (Closed)",
        "brand": "Starbucks",
        "wifi": "Free",
        "latte": "30",
        "address": "No 1688 Jinshajiang Road,Shanghai",
        "lat": "31.2324593",
        "lng": "121.3805794",
        "zip": "200333"
    },
    {
        "id": "151",
        "name": "Jia Hui",
        "brand": "Starbucks",
        "wifi": "Free",
        "latte": "30",
        "address": "Tianyaoqiao Street,Shanghai",
        "lat": "31.1844458",
        "lng": "121.4433802",
        "zip": "200030"
    },
    {
        "id": "152",
        "name": "Friendship West",
        "brand": "Starbucks",
        "wifi": "Free",
        "latte": "30",
        "address": "No.88 West Xianxia RoadChangning District,Shanghai",
        "lat": "31.2059111",
        "lng": "121.3902233",
        "zip": "200335"
    },
    {
        "id": "153",
        "name": "Pu Cheng",
        "brand": "Starbucks",
        "wifi": "Free",
        "latte": "30",
        "address": "Pu Cheng Rd,Shanghai",
        "lat": "31.2244524",
        "lng": "121.5141937",
        "zip": "200122"
    },
    {
        "id": "154",
        "name": "Zhongrong (Closed)",
        "brand": "Starbucks",
        "wifi": "Free",
        "latte": "30",
        "address": "No. 1068 South Pudong Nan Road1F,Shanghai",
        "lat": "30.9739088",
        "lng": "121.7357385",
        "zip": "200120"
    }
]